Name;Latitude;Longitude;Label
559/2, Street number 24, Bhagat Colony, Sant Nagar, Burari, 11084, Delhi 110084, India;28.742783;77.192722;bad
559/2, Street number 24, Bhagat Colony, Sant Nagar, Burari, 11084, Delhi 110084, India;28.742783;77.192722;good
559/2, Street number 24, Bhagat Colony, Sant Nagar, Burari, 11084, Delhi 110084, India;28.742783;77.192722;good
Q953+P2 Afjalnagar Siti, Uttar Pradesh, India;28.759307;77.352591;bad
PJPF+67 Afrashah Pur, Uttar Pradesh, India;28.735603;77.623129;bad
PJH7+MQ Afrashah Pur, Uttar Pradesh, India;28.729206;77.61446;bad
Gali No 9 Uttaranchal Colony Loni Ghaziabad Loni, Trans Delhi Signature City, Agraula, Uttar Pradesh 201102, India;28.788236;77.277148;good
Main Delhi - Saharanpur Road Patanjali megastore Mall Shop No -13, Saharanpur - Delhi Rd, Trans Delhi Signature City, Agraula, Uttar Pradesh 201102, India;28.785965;77.277504;good
Q7QG+2XQ, Trans Delhi Signature City, Agraula, Uttar Pradesh 201102, India;28.787331;77.27729;bad
Q7QG+2XQ, Trans Delhi Signature City, Agraula, Uttar Pradesh 201102, India;28.787631;77.277243;bad
Q7QG+FRX, Saharanpur - Delhi Rd, Trans Delhi Signature City, Agraula, Uttar Pradesh 201102, India;28.788898;77.277073;bad
VCF4+X6 Alapur, Uttar Pradesh, India;28.874968;77.405548;bad
8/2, 8/2, Ashoka Rd, India Gate, Area, Delhi 110001, India;28.618751;77.220922;good
22/5, 22/5, Dr Rajendra Prasad Rd, India Gate, Area, Delhi 110001, India;28.616576;77.219875;bad
VG56+W4 Arifpur Ujaira, Uttar Pradesh, India;28.859859;77.510262;good
VG59+WR Arifpur Ujaira, Uttar Pradesh, India;28.859859;77.519531;good
VG38+VM Arifpur Ujaira, Uttar Pradesh, India;28.854635;77.516634;bad
QWF2+C6 Asauda Sewan, Haryana, India;28.77357;76.900514;bad
VVF6+X7 Ashrafpur Matindu-R, Haryana, India;28.874968;76.860695;good
PJXF+97 Avvalpur, Uttar Pradesh, India;28.748397;77.623129;bad
Q9P2+VH Badshahpur Sirauli, Uttar Pradesh, India;28.787219;77.351389;bad
Shop No 82 NN, Jhajjar - Bahadurgarh Rd, Model Town, Bahadurgarh, Haryana 124507, India;28.694627;76.933206;bad
New, Najafgarh Rd, near shiv chowk, Basant Vihar, Bahadurgarh, Haryana 124507, India;28.687642;76.933511;bad
192, Nahara - Nahari Rd, Aggarwal Colony, Bahadurgarh, Haryana 124507, India;28.695365;76.93364;bad
Shop, 1, Nahara - Nahari Rd, Model Town, Bahadurgarh, Haryana 124507, India;28.694884;76.933353;bad
H.NO 7/253, Gali No. 6 Model Town, Nahra Nahri Road, Model Town, Bahadurgarh, Haryana 124507, India;28.692353;76.931906;bad
MWXM+2RJ, Aggarwal Colony, Bahadurgarh, Haryana 124507, India;28.697551;76.93465;bad
Near Tirupati mega mart balour chungi, Najafgarh Rd, Killa Mohalla, Bahadurgarh, Haryana 124507, India;28.683764;76.931978;bad
1, Nahara - Nahari Rd, Model Town, Bahadurgarh, Haryana 124507, India;28.692754;76.932136;bad
In Basement Jogi ram saini complex near bahadurgarh city metro station, opposite Metro Pillar No 835, opposite HNG gate & Bal bharti school, Dharampura, Bahadurgarh, Haryana 124507, India;28.690978;76.933487;bad
MWVM+V7F, Nahara - Nahari Rd, Model Town, Bahadurgarh, Haryana 124507, India;28.694662;76.933226;bad
2/384, Street No. 2, Aggarwal Colony, Bahadurgarh, Haryana 124507, India;28.697004;76.934498;bad
Bahadurgarh City, Ram Nagar, Bahadurgarh, Haryana 124507, India;28.690856;76.934515;good
MWGP+6GX, Bank Colony, Arya Nagar, Bahadurgarh, Haryana 124507, India;28.675707;76.936575;bad
MWGP+6GX, Bank Colony, Arya Nagar, Bahadurgarh, Haryana 124507, India;28.67553;76.936704;good
Near H.N.G. Gate, MWRM+C8W, Delhi-Rohtak Road, Model Town, Bahadurgarh, Haryana 124507, India;28.69101;76.933234;bad
Shop No, 41, Nahara - Nahari Rd, Model Town, Bahadurgarh, Haryana 124507, India;28.693259;76.932426;bad
MWMJ+8PJ, Shastri nagar, Bahadurgarh, Haryana 124507, India;28.683329;76.93177;good
Metro pillar 837, Dtdc courier SPD LOGISTICS, Model Town, Bahadurgarh, Haryana 124507, India;28.691086;76.932775;bad
Metro pillar 837, Dtdc courier SPD LOGISTICS, Model Town, Bahadurgarh, Haryana 124507, India;28.691086;76.932775;bad
35, Nahara - Nahari Rd, near Union Bank Of India, Model Town, Bahadurgarh, Haryana 124507, India;28.694105;76.932909;bad
2/312, Gali Number 5, Aggarwal Colony, Bahadurgarh, Haryana 124507, India;28.698626;76.934886;bad
Shop No. 62, Opposite Union Bank, Nahara - Nahari Rd, Model Town, Bahadurgarh, Haryana 124507, India;28.693185;76.932384;bad
QC2G+3V Bahadurpur, Uttar Pradesh, India;28.750146;77.427242;good
JG2X+62 Bambawar, Uttar Pradesh, India;28.600579;77.547521;bad
C4HR+W53, Baliawas, Bandhwari, Haryana 122003, India;28.42981;77.140914;good
Bandwari, Dera Mandi, Bandhwari, Haryana 122102, India;28.414935;77.156986;bad
SECONDARY WING, GOVERNMENT SCHOOL BANDHWARI, Bandhwari, Haryana 122102, India;28.403082;77.14874;bad
RF9R+7P Bandipur, Uttar Pradesh, India;28.818244;77.491808;good
PFQG+JW2, Duhai, Basantpur Saitli, Uttar Pradesh 201003, India;28.739322;77.476637;good
R967+WF Bhagot, Uttar Pradesh, India;28.812265;77.363663;bad
VF5G+W2 Bhanaira, Uttar Pradesh, India;28.859859;77.475071;good
VF5C+WG Bhanaira, Uttar Pradesh, India;28.859859;77.471294;bad
RJJJ+J4 Bhatjan, Uttar Pradesh, India;28.831535;77.630296;bad
RJ9J+V8 Bhojpur, Uttar Pradesh, India;28.819729;77.630832;good
Delta 1, Block A, Delta I, Brahmpur Rajraula Urf Nawada, Uttar Pradesh, India;28.478444;77.525734;bad
251, Fatehpuri, near, Chandni Chowk, Delhi 110014, India;28.656693;77.223745;bad
CRCW+FH Chand Nagar, Haryana, India;28.421146;76.846447;good
3007, Chandni Chowk Rd, Maliwara, Shah Ganj, Old Delhi, Chawri Bazar, Delhi 110006, India;28.656192;77.230663;bad
1059, Sitaram Bazar Rd, Bazar Sirkiwalan, Chawri Bazar, Old Delhi, Chawri Bazar, Delhi 110006, India;28.647791;77.228527;bad
VVFC+X4 Chhanauli-R, Haryana, India;28.874968;76.870308;good
Q8GG+3QJ, Chirauri, Uttar Pradesh 201102, India;28.774932;77.32684;bad
Q89J+QM Chirauri, Uttar Pradesh, India;28.76939;77.331648;bad
35, Chabi Ganj, Kashmere Gate, Chowk, Delhi 110006, India;28.665844;77.227543;bad
35, Chabi Ganj, Kashmere Gate, Chowk, Delhi 110006, India;28.665873;77.227701;bad
35, Chabi Ganj, Kashmere Gate, Chowk, Delhi 110006, India;28.665869;77.227681;bad
Q8WQ+MJ Dagarpur, Uttar Pradesh, India;28.796697;77.339115;bad
R85H+V5 Dagarpur, Uttar Pradesh, India;28.809684;77.327999;bad
213, Bawana Rd, Shiv Vihar, Shahbad Daulatpur Village, Rohini, Daulatpur, Delhi 110042, India;28.745072;77.112679;bad
Q8Q3+PP Daultabad Motapur, Uttar Pradesh, India;28.789347;77.304262;good
Shop G- 10 Regent Mall, Hardhyan Singh Marg, behind Gaffar Market, Block 32, Krishna Nagar, Karol Bagh, Delhi, 110005, India;28.651994;77.188372;good
JX59+XRP, Najafgarh Dhansa Rd, Gopal Nagar Extension, Najafgarh, Delhi, 110043, India;28.609857;76.969609;bad
A118, Chaukhandi, Vishnu Garden, Delhi, 110018, India;28.645532;77.094908;bad
M6CW+27 Delhi, India;28.670108;77.245684;bad
198/C, Pushpanjali, Karkardooma, Anand Vihar, Delhi, 110092, India;28.654176;77.308822;bad
ISBT Ring Road, Civil Lines, Delhi, 110054, India;28.671234;77.231432;bad
392, Sector A1, Narela, Delhi, 110040, India;28.840411;77.103584;bad
478/8, Rohtak Rd, Ekta Enclave, Peeragarhi Village, Paschim Vihar, Delhi, 110087, India;28.679647;77.092439;bad
M49X+FV8, Madan Park, Block B, East Punjabi Bagh, Punjabi Bagh, Delhi, 110026, India;28.668661;77.149429;bad
C-110, Aggra Nagar, Gali No 1, Nangloi, Gulshan Park, Mubarkpur, Delhi, 110041, India;28.686508;77.057299;bad
J242+PCJ, Old Dharampura, Masudabad, Najafgarh, Delhi, 110043, India;28.60678;77.001058;bad
C26a Mansarovar Garden, Block H, Kirti Nagar, Delhi, 110015, India;28.649972;77.144006;good
Red Fort Metro Station Lal Qila, Metro Station Lal Qila, Lajpat Rai Market, Chandni Chowk, Delhi, 110006, India;28.657344;77.23664;bad
A-8, Service Rd, near Navjeevan Hospital, Pushpanjali Enclave, Pitam Pura, Delhi, 110034, India;28.694988;77.108133;bad
C-110, Aggra Nagar, Gali No 1, Nangloi, Gulshan Park, Mubarkpur, Delhi, 110041, India;28.686508;77.057299;bad
Office no 123,1st floor DT city centre,DLF mall, Block AO, Poorbi Shalimar Bag, Shalimar Bagh, Delhi, 110088, India;28.702917;77.158077;good
94, Patel Rd, Block I, Karampura West, Karam Pura, Delhi, 110015, India;28.664406;77.139985;bad
P4/214, Aman Vihar No 7 Galli, Block P4, Aman Vihar, Sultanpuri, Delhi, 110086, India;28.70318;77.073786;bad
D14/ 197, First Floor, opposite Metro Pillar Number 414, Pocket 30, Sector 7D, Rohini, Delhi, 110085, India;28.711821;77.119863;bad
64, New Shabhapur Gujran, Shastri Park, Karawal Nagar, Delhi, 110094, India;28.670667;77.244589;bad
Mukherji Nagar Baandh, Gopalpur Village, Delhi, 110009, India;28.715496;77.216157;bad
R35V+5Q6, Holambi Main Rd, Holambi Kalan, Delhi, 110082, India;28.807749;77.094216;bad
2875, Bahadurgarh Rd, near Teliwara, Teliwara, Sadar Bazaar, Delhi, 110006, India;28.660008;77.21531;bad
106-107, Sector 11, Rohini, Delhi, 110085, India;28.730213;77.107044;bad
Phase-2 Shed No- 1/10, 1/11, DSIDC Complex Near New Police station, Nand Nagri, Mandoli, Delhi, 110093, India;28.698434;77.309423;bad
16, Rd Number 56, West Punjabi Bagh, Punjabi Bagh, Delhi, 110026, India;28.667046;77.125537;good
M4V3+JHV, Sector 2, Mangolpuri, Delhi, 110083, India;28.693809;77.103614;bad
Plot 6, Sector 19B, Dwarka, Delhi, 110075, India;28.578172;77.0428;bad
125, Pocket E 20, Pocket 20, Sector 3E, Rohini, Delhi, 110085, India;28.699593;77.104541;bad
Shop No 7773, Sadar Nala Road, Nawab Rd, near kishan masale wala, Basti Harphool Singh, Sarai Khalil, Sadar Bazaar, Delhi, 110006, India;28.657562;77.210788;good
Uttam Nagar Terminal, JJ Colony, Uttam Nagar, Delhi, 110059, India;28.625613;77.065459;bad
Jahangir Puri Metro Station, Bhalswa Jahangirpuri, Jahangirpuri, Delhi, 110033, India;28.726764;77.162095;bad
251/3, Post Office Block, Block D, Krishna Nagar, Delhi, 110051, India;28.660285;77.281301;bad
Kirti Nagar, Delhi, 110015, India;28.654627;77.136972;good
P3WV+RH8, Bawana Rd, Block B, Prahladpur, Rohini, Delhi, 110042, India;28.747077;77.093849;bad
Arun Jaitley Stadium Delhi Gate, IG Indoor Stadium, ITO, Vikram Nagar, Delhi, 110002, India;28.635336;77.248528;bad
Chandni Chowk, New Delhi, Omaxe, M64P+8F9, Chandni Chowk, Delhi, 110006, India;28.655953;77.236376;bad
HALL, RAJDHANI COLLEGE, Block C, Bali Nagar, Delhi, 110015, India;28.655158;77.126449;bad
Mata Sundari Mor Woman Court DDU Marg, Mata Sundari Railway Colony, Mandi House, Delhi, 110002, India;28.631209;77.234084;bad
Hotel Mount Shiva Deluxe 5, Arakasha Road, Arya Nagar, Paharganj, Delhi, 110055, India;28.645626;77.217386;bad
Mukarba Chowk, Jahangirpuri Industrial Area, Jahangirpuri, Delhi, 110033, India;28.73456;77.155477;good
M44V+734, DLE Industrial Area, Kirti Nagar, Delhi, 110015, India;28.655539;77.142559;bad
122-D/1, S Block Rd, Vikas Nagar, Shiv Vihar, Hastsal, Delhi, 110058, India;28.647168;77.048417;bad
M3JC+XM4, Camp No 3, Block X, JJ Colony No 3, Nangloi, Delhi, 110041, India;28.682278;77.071376;bad
Sarai Basti, Daya Basti, Delhi, 110035, India;28.668745;77.176041;bad
J7V2+44 Delhi, India;28.642848;77.250284;good
Street No. 05, B-Block, Indira Gandhi Park, Sultanpuri, Delhi, 110086, India;28.698079;77.07761;bad
D5-65, Block D, Sultanpuri, Delhi, 110086, India;28.700498;77.072799;bad
ISBT Ring Road, Civil Lines, Delhi, 110054, India;28.671234;77.231432;bad
H2QQ+P7 Delhi, India;28.589373;77.038177;good
170, Patparganj Industrial Area, Patparganj, Delhi, 110092, India;28.63894;77.314583;bad
236, Kucha Tiku Shah, Ajmeri Gate, Delhi, 110006, India;28.648134;77.225711;good
MILAP BHAWAN, BAHADUR SHAH ZAFAR MARG, Maharao Krishna Marg, Bahadur Shah Zafar Marg, Vikram Nagar, Delhi, 110002, India;28.632655;77.241169;bad
REST ROOM, SHALIMAR BAGH, Haiderpur, Shalimar Bagh, Delhi, 110088, India;28.720074;77.15412;good
1/3224, Main Mandoli Rd, near Aggarwal sweets, Ram Nagar Extension, Ram Nagar, Shahdara, Delhi, 110032, India;28.682764;77.296176;bad
CPRTI / Delhi Jal Board, Central Ridge Reserve Forest, Delhi, 110001, India;28.63652;77.191981;bad
Geeta Colony Pul, Raj Ghat, Delhi, 110002, India;28.649836;77.252497;bad
J2GC+RW9, Nangli Vihar Extension, Baprola, Delhi, 110043, India;28.62824;77.02281;bad
Shop No-956/B Masjid Shahi Bagh Wali Near, Town Hall, Chandni Chowk, Delhi, 110006, India;28.657109;77.227041;good
ISBT Kashmere Gate, Inter State Bus Terminal, Old Delhi, Delhi, 110006, India;28.666753;77.229505;bad
Shamshan Ghat Pusta, Geeta Colony, Delhi, 110031, India;28.655445;77.263841;bad
u-250shakarpur laxmi nagar, Yamuna Bank, Delhi, 110092, India;28.628226;77.267318;good
Shop No-956/B Masjid Shahi Bagh Wali Near, Town Hall, Chandni Chowk, Delhi, 110006, India;28.657189;77.227045;bad
PLOT NO. 20, OLD KAKROLA ROAD (OPPOSITE ROSEWOOD HOSPITAL, Sangam Vihar, Dharampura, Najafgarh, Delhi, 110043, India;28.607287;76.999344;bad
Rohini West station, Rohini, Delhi, 110085, India;28.71471;77.116394;good
Gandhi Vihar, Gopalpur Village, Delhi, 110009, India;28.722316;77.216223;bad
J7MQ+5VR Acharya Nagraj Marg, Block A, Preet Vihar, New Delhi, Block A, Preet Vihar, Delhi, 110092, India;28.63298;77.289526;bad
A3/351, near Park, Sultanpuri, Delhi, 110086, India;28.695858;77.075636;bad
M765+RG7, Pushta Rd, Gandhi Nagar, Seelampur, Shahdara, Delhi, 110031, India;28.661851;77.258913;bad
M8RF+88H, New Light Colony, Leprosy Home Complex, Dilshad Garden, Delhi, 110093, India;28.690965;77.323046;bad
16, Rajpur Rd, Ludlow Castle, Civil Lines, Delhi, 110054, India;28.675389;77.216442;bad
M4R4+9V5, Maharshi Parshuram Marg, Maulana Azad Society, Co-operative Group Housing Societies Pitampura, Pitam Pura, Delhi, 110034, India;28.690715;77.106958;bad
765, Bahadurgarh Rd, Azad Market, Sheesh Mahal, Sadar Bazaar, Delhi, 110006, India;28.661789;77.209626;good
Naini Lake, P54V+RQV, Block A 2, Model Town Phase I, Model Town, Delhi, 110009, India;28.707252;77.194444;bad
698 main bara tooti chowk sadar bazar delhi, Narain Market, Sadar Bazaar, Delhi, 110006, India;28.658388;77.212718;bad
F-36, near Metro Pillar Number 81, C Block, Preet Vihar, Delhi, 110092, India;28.638926;77.291621;bad
1816 Mohammad din Elachi Marg, Turkman Gate, Chandni Chowk, Delhi, 110006, India;28.641598;77.232213;good
A-29, Ramgarh, Bhalswa Jahangirpuri, Jahangirpuri, Delhi, 110033, India;28.725987;77.162683;bad
e-block, 1181, Bhalswa Jahangirpuri, Jahangirpuri, Delhi, 110033, India;28.725491;77.163046;bad
157, Kucha Tiku Shah, Ajmeri Gate, Delhi, 110006, India;28.647136;77.225456;bad
J354+6PP, Raja Puri, Matiala, Delhi, 110059, India;28.608098;77.056855;good
4-5, Shahzada Bagh, Industrial Area, Opp, Inderlok, Delhi, 110035, India;28.612517;77.277318;bad
M4XC+9H6, Service Rd, Block B, Saraswati Vihar, Pitam Pura, Delhi, 110034, India;28.698649;77.121294;good
Legends The Merchant Group 243, Vardhman Plaza, New, Saint Nagar Delhi, Rani Bagh, Pitam Pura, Delhi, 110034, India;28.68934;77.133405;good
01, Kashmere Gate, Delhi, 110006, India;28.666602;77.229617;bad
Highland Apartment Block-A, HIGHLAND APARTMENT, Sector 12 Dwarka, Dwarka, Delhi, 110078, India;28.591093;77.036731;bad
Q6F3+53 Delhi, India;28.772939;77.202702;good
M883+M9V, Rd Number 71, Vishwas Nagar Extension, Vishwas Nagar, Jhilmil Colony, Delhi, 110032, India;28.666595;77.30338;bad
78B, Sector 19, Rohini, Delhi, 110042, India;28.734306;77.138348;good
JA Block Ashok Vihar, J BLock, Police Colony, Pocket J, Phase 1, Ashok Vihar, Delhi, 110052, India;28.686736;77.172824;bad
H1/139-140, Main Road Opposite Gurudwara, New Seelampur, New Seelampur I, Shahdara, Delhi, 110053, India;28.671138;77.267051;bad
A 41, Guru Teg B Nagar, M Ptp Marg, Block B, Model Town Phase I, Model Town, Delhi, 110009, India;28.702336;77.1951;good
231, Pocket D-14, Pocket 14, Sector 7D, Rohini, Delhi, 110085, India;28.71141;77.120457;good
01, Kashmere Gate, Delhi, 110006, India;28.666602;77.229617;bad
Q44X+CV5, Swaroop Nagar, Block F, Swaroop Nagar, Bhalswa, Delhi, 110042, India;28.755824;77.148856;bad
Beriwala Bagh, Hari Nagar, Delhi, 110064, India;28.631505;77.111887;bad
J8P2+66F EDMC Park, Gurudwara Rd, I.P.Extension, Patparganj, Delhi, 110092, India;28.63561;77.3003;good
34-B, near Peeragarhi Metro Station, Ekta Enclave, Udyog Nagar, Paschim Vihar, Delhi, 110087, India;28.679833;77.092907;bad
Moti Nagar Industrial Area, Delhi, 110015, India;28.657466;77.148676;bad
J887+FFW, Al Fahad Rd, Mayur Vihar Phase I, Block 16, Kalyan Puri, Delhi, 110091, India;28.61624;77.313799;bad
Seelampur Metro Station, Phase 1, Block B, Shahdara, Delhi, 110053, India;28.670775;77.265447;good
0098, RPS Complex, Raj Ghat, Delhi, 100002, India;28.638816;77.25726;bad
Shamshan Ghat Pusta, Geeta Colony, Delhi, 110031, India;28.655288;77.264156;bad
M3M8+29, JJ Colony No 1, Nangloi, Delhi, 110041, India;28.682362;77.065786;bad
B5/164, Indira Gandhi Park, Sultanpuri, Delhi, 110086, India;28.697665;77.075808;bad
J7C6+WC Delhi, India;28.622334;77.261071;bad
New Delhi,, 11, Sector 19, Pocket 3, Sector 11 Dwarka, Dwarka, Delhi, 110075, India;28.587137;77.048427;bad
P5CR+PM Delhi, India;28.721831;77.191647;bad
No. 331, Chandni Chowk Rd, Haveli Haider Kuli, Chandni Chowk, Delhi, 110006, India;28.656575;77.224122;bad
Unit 2, Lower Ground Floor Parsvnath Mall, Akshardham Metro Station, Akshardham, New Delhi, Pandav Nagar, Delhi, 110092, India;28.617835;77.279373;good
Azad Hind Fauj Marg, Block A, Sewak Park, Kakrola, Delhi, 110059, India;28.613868;77.033122;bad
1099, opposite side, Kucha Natwa, Chandni Chowk, Delhi, 110006, India;28.657137;77.228032;bad
C-110, Aggra Nagar, Gali No 1, Nangloi, Gulshan Park, Mubarkpur, Delhi, 110041, India;28.686508;77.057299;bad
R3VR+H2V, Bawana Rd, Narela Mandi, Narela, Delhi, 110040, India;28.844043;77.090019;good
Administrative Block, DRM Office block, J6Q9+FXF, State Entry Rd, Railway Colony, Delhi, 110002, India;28.638624;77.219886;bad
Rohini West station, Rohini, Delhi, 110085, India;28.71471;77.116394;bad
C-110, Aggra Nagar, Gali No 1, Nangloi, Gulshan Park, Mubarkpur, Delhi, 110041, India;28.686508;77.057299;good
J7VX+G7R, Vikas Marg, Gagan Vihar, Swasthya Vihar, Delhi, 110092, India;28.643759;77.29807;bad
A- block, Maharishi Balaram Marg, JJ Colony, Shakurpur Colony, Shakurpur, Delhi, 110034, India;28.686508;77.147072;bad
BKJ14, Mangal Bazar Rd, Block A, Sultanpuri, Delhi, 110086, India;28.69536;77.074297;bad
R-206, Greater Kailash I, Mukherjee Nagar, Delhi, 110048, India;28.707729;77.214219;bad
Welcome Metro Station, Phase 4, Block C, Shahdara, Delhi, 110032, India;28.672407;77.276207;bad
Britannia, Dr Lohia Industrial Area, Keshav Puram, Shakurpur, Delhi, 110034, India;28.685002;77.148953;bad
Khalsa College, Block 52, Karol Bagh, Delhi, 110005, India;28.6548;77.189005;bad
R557+QC Delhi, India;28.809393;77.163575;bad
4/27 SUBHASH NAGAR, NEW DELHI, Ankur Enclave, Paschim Vihar, Delhi, 110027, India;28.664947;77.096663;good
M4V3+JJ3, Outer Ring Rd, Sector 2, Pitam Pura, Delhi, 110083, India;28.693918;77.104026;bad
HALL, RAJDHANI COLLEGE, Block C, Bali Nagar, Delhi, 110015, India;28.655158;77.126449;bad
M3MH+R52, Bhim Nagar, Block D, Delhi State Industrial and Infrastructure Development, Nangloi, Delhi, 110041, India;28.683884;77.078402;bad
102, Grand Trunk Rd, Jhangirpuri, Lal Bagh, Azadpur, Delhi, 110033, India;28.706976;77.18053;bad
M6P6+VR, University Enclave, Delhi, 110007, India;28.687081;77.211862;bad
Rohini West station, Rohini, Delhi, 110085, India;28.71471;77.116394;good
64, New Shabhapur Gujran, Shastri Park, Karawal Nagar, Delhi, 110094, India;28.670701;77.244521;bad
6, Pipal Wala Rd, Block E, Bhagwati Garden, Nawada, Delhi, 110066, India;28.624018;77.039201;bad
M7CC+VQC, Phase 3, Shahdara, Delhi, 110032, India;28.671799;77.271867;bad
P477+HFQ, Sector 6 Rd, Sector 6, Rohini, Delhi, 110085, India;28.71402;77.113725;good
J27M+6C2, Azad Hind Fauj Marg, Dwarka Sector-3, Kakrola, Delhi, 110078, India;28.612854;77.033464;good
Delhi Secretariat, IG Indoor Stadium, ITO, Vikram Nagar, Delhi, 110002, India;28.627992;77.251354;good
Shanti Nagar, Shanti Nagar, Tri Nagar, Delhi, 110035, India;28.677565;77.167175;bad
32, Peera Garhi Flyover, Ekta Enclave, Peeragarhi Village, Paschim Vihar, Delhi, 110087, India;28.678454;77.094249;bad
UNIT NO. 524, 6th Floor West End Mall, Janakpuri District Center, Janakpuri, Delhi, 110058, India;28.629882;77.078821;good
C-110, Aggra Nagar, Gali No 1, Nangloi, Gulshan Park, Mubarkpur, Delhi, 110041, India;28.686508;77.057299;bad
M6H7+VR7, Rani Jhansi Rd, Kamla Nehru Ridge, Civil Lines, Delhi, 110007, India;28.680033;77.215354;bad
J7PR+JV3, Block C, C Block, Preet Vihar, Delhi, 110092, India;28.636646;77.292;bad
New Delhi Railway Station Gate 1, Railway Colony, Delhi, 110002, India;28.641236;77.218731;bad
C-110, Aggra Nagar, Gali No 1, Nangloi, Gulshan Park, Mubarkpur, Delhi, 110041, India;28.686508;77.057299;bad
Maharana Pratap Inter State Bus Terminal Metro Station, Metro Station Kashmere Gate, Kashmere Gate, Delhi, 110006, India;28.667624;77.229954;bad
J5QQ+73F, Old Rajinder Nagar, Rajinder Nagar, Delhi, 110001, India;28.638287;77.187623;good
197a, Peera Garhi Flyover, Ekta Enclave, Peeragarhi Village, Mangolpuri, Delhi, 110087, India;28.679623;77.092661;bad
St. Xavier School Shahbad, Rama Enclave, Shahbad Daulatpur Village, Rohini, Delhi, 110042, India;28.745532;77.103217;good
Clock Tower, DEEN DAYAL UPADHYAY HOSPITAL, Hari Enclave, Hari Nagar, Delhi, 110064, India;28.628101;77.112229;bad
Rohini Sec 27 and 30 Crossing, Shiv Vihar, Sector 28, Rohini, Delhi, 110042, India;28.74778;77.089562;bad
A/114, Bagicha St, Vishwas Nagar, Shahdara, Delhi, 110032, India;28.664902;77.299089;bad
M67W+6M Delhi, India;28.663042;77.246689;bad
Adarsh Nagar, Delhi, India;28.716628;77.17042;bad
5319, Sadar Thana Rd, Pahari Dhiraj, Sadar Bazaar, Delhi, 110006, India;28.658242;77.212677;bad
J6PG+6HF, CGRC Rd, Minto Road Complex, Sushant Lok Phase 1, Minto Bridge Colony, Barakhamba, Delhi, 110002, India;28.635519;77.226641;good
ISBT Ring Road, Civil Lines, Delhi, 110054, India;28.671234;77.231432;bad
920 Western Mall, Nearest, Metro Station Janakpuri West, Janakpuri District Center, Janakpuri, Delhi, 110058, India;28.629141;77.077844;good
190/3, Adhyapak Nagar, Rishal Garden, Nangloi, Delhi, 110041, India;28.66229;77.04983;bad
H2QQ+P7 Delhi, India;28.589373;77.038177;good
D-1, Basti Vikas Kendra, West Jyoti Nagar, Nand Nagri, Mandoli, Delhi, 110093, India;28.699173;77.304004;bad
1704, Shyama Prasad Mukherjee Marg, near by Peeli Kothi, Bara Chamarwara, Khari Baoli, Old Delhi, Delhi, 110006, India;28.662086;77.218862;bad
285, Chawri Bazar Rd, Kucha Mir Ashiq, Manohar Market, Hauz Qazi, Chandni Chowk, Delhi, 110006, India;28.650526;77.231379;good
M692+847, Kherian Mohalla, Subzi Mandi, Delhi, 110007, India;28.668354;77.200231;bad
C-110, Aggra Nagar, Gali No 1, Nangloi, Gulshan Park, Mubarkpur, Delhi, 110041, India;28.686508;77.057299;bad
H3P4+JVW, Sector 10 Dwarka, Dwarka, Delhi, 110075, India;28.586232;77.057073;bad
Geeta Colony, Geeta Colony, Delhi, 110031, India;28.652262;77.266343;bad
2316 , pelli buillding, opposite Punjab National Bank Arya Samaj Road Karol Bagh New Delhi, Block 12D, Beadonpura, Karol Bagh, Delhi, 110005, India;28.650004;77.189564;good
M67W+5H Delhi, India;28.662945;77.246453;bad
Shop No-1234 New Cloth Market, Sadar Thana Rd, Green Market, Narain Market, Sadar Bazaar, Delhi, 110006, India;28.657628;77.212502;bad
P5CR+PM Delhi, India;28.721831;77.191647;good
No. 5180, Basant Rd, Sidarth Basti, Aram Bagh, Paharganj, Delhi, 110055, India;28.639806;77.216583;bad
Pan mandi Sadar, Rui Mandi, Sadar Bazaar, Delhi, 110006, India;28.658561;77.21277;bad
C-110, Aggra Nagar, Gali No 1, Nangloi, Gulshan Park, Mubarkpur, Delhi, 110041, India;28.686508;77.057299;bad
A 4 , 1st floor flat No 2 Shiv mandir mohalla Badli Near shiv chouk, Badli, Rohini, Delhi, 110042, India;28.731016;77.141643;bad
M3VR+XG3, Block D, Mangolpuri, Delhi, 110083, India;28.694892;77.091309;bad
M6WC+X4Q, Banarsi Das Estate, Timarpur, Delhi, 110054, India;28.697601;77.220527;bad
M8G3+9XW, Damodar Park Industrial Area, Block R, Dilshad Garden, Delhi, 110095, India;28.675777;77.304892;bad
10, Veer Savarkar Block, Sector 3, Preet Vihar, Delhi, 110092, India;28.637232;77.286564;good
25, Najafgarh Rd, Block Z, Rajouri Garden Extension, Rajouri Garden, Delhi, 110027, India;28.644885;77.114965;good
H-48, Rohtak Rd, Udyog Nagar, Mangolpuri, Delhi, 110041, India;28.679814;77.093091;bad
M64R+79X, Lal Qila, Chandni Chowk, Delhi, 110006, India;28.655706;77.240993;good
D3/84, Block D3, Block D, Sultanpuri, Delhi, 110086, India;28.699914;77.073593;bad
P477+HFQ, Sector 6 Rd, Sector 6, Rohini, Delhi, 110085, India;28.71402;77.113725;bad
M4R4+9V5, Maharshi Parshuram Marg, Maulana Azad Society, Co-operative Group Housing Societies Pitampura, Pitam Pura, Delhi, 110034, India;28.690715;77.106958;bad
Outer Ring Road Makbara Chowk, Bhalswa Jahangir Village, Bhalswa, Delhi, 110033, India;28.736902;77.159742;bad
CLASSROOM, MAXFORT SCHOOL DWARKA, Sector 7 Service Rd, Sector 7 Dwarka, Dwarka, Delhi, 110075, India;28.588501;77.068131;bad
E 76, E Block, Gandhi Vihar, Gopalpur Village, Delhi, 110009, India;28.71957;77.2152;bad
Peera Garhi, Delhi, India;28.679853;77.092706;bad
198, Qutab Rd, Ram Nagar Market, Teliwara, Sadar Bazaar, Delhi, 110006, India;28.648585;77.217864;bad
J7C7+J7 Delhi, India;28.621547;77.263147;good
P477+HFQ, Sector 6 Rd, Sector 6, Rohini, Delhi, 110085, India;28.71402;77.113725;good
978, JJ Colony, Shakurpur Colony, Shakurpur, Delhi, 110034, India;28.68541;77.149761;bad
A3/10, Sultanpuri, Delhi, 110086, India;28.695576;77.074561;good
66, Kiran Vihar, Karkardooma, Anand Vihar, Delhi, 110092, India;28.653883;77.301792;bad
LAWYER CHAMBERS, DISTRICT COURTS ROUSE AVENUE, Mata Sundari Railway Colony, Mandi House, Delhi, 110002, India;28.632903;77.233913;bad
M5Q9+W33, Maharishi Dayanand Saraswati Marg, H block, Pocket H, Phase 1, Ashok Vihar, Delhi, 110052, India;28.68969;77.167782;bad
M794+4JG, J Block Gali, Seelampur, Shahdara, Delhi, 110053, India;28.667413;77.257093;bad
M66H+4CM, Shyama Prasad Mukherjee Marg, Old Delhi, Delhi, 110006, India;28.660081;77.22866;bad
1359/2, Kacha Bagh, Katra Lehswan, Chandni Chowk, Delhi, 110006, India;28.657258;77.229701;bad
Plot 10, Tyagi Rd, Sector 19B, Dwarka, Delhi, 110075, India;28.573537;77.043706;bad
P5VC+MQ, Bhalswa Dairy, Bhalswa, Delhi, 110042, India;28.744531;77.171522;bad
R38H+MM Delhi, India;28.816729;77.079247;bad
J5VV+MX Delhi, India;28.644147;77.194878;bad
C-110, Aggra Nagar, Gali No 1, Nangloi, Gulshan Park, Mubarkpur, Delhi, 110041, India;28.686508;77.057299;bad
Rohini Depot 1 Sec 6 (Ambedkar Hospital), Swarn Jayanti Park, Sector 10, Rohini, Delhi, 110085, India;28.715697;77.114263;good
P4J6+QV5, Pocket 1, Sector 11D, Rohini, Delhi, 110085, India;28.731672;77.112205;bad
H2QQ+P7 Delhi, India;28.589373;77.038177;good
M5WJ+QF4, Ashok Vihar Flyover, Ashok Vihar II, Pocket A, Ashok Vihar, Delhi, 110052, India;28.697014;77.181898;bad
C-110, Aggra Nagar, Gali No 1, Nangloi, Gulshan Park, Mubarkpur, Delhi, 110041, India;28.686508;77.057299;bad
Q43M+5M2, Samaypur - Libaspur Rd, Hira Colony, Delhi, 110042, India;28.753138;77.134066;bad
27, Patel Rd, West Patel Nagar, Patel Nagar, Delhi, 110008, India;28.65343;77.155053;bad
M3MH+R52, Bhim Nagar, Block D, Delhi State Industrial and Infrastructure Development, Nangloi, Delhi, 110041, India;28.683884;77.078402;bad
M6V7+WWR, Banarsi Das Estate, Timarpur, Delhi, 110007, India;28.694992;77.214747;good
M5Q3+3X4 OP Nigam Park (Central Park), C2 Block, Keshav Puram, Tri Nagar, Delhi, 110035, India;28.687597;77.155048;bad
01, Kashmere Gate, Delhi, 110006, India;28.666631;77.229595;bad
C-110, Aggra Nagar, Gali No 1, Nangloi, Gulshan Park, Mubarkpur, Delhi, 110041, India;28.686508;77.057299;bad
A3/91, Sultanpuri, Delhi, 110086, India;28.695797;77.074467;bad
C/0 - Bhagwati Motors (Regd.)1017 Main, Arya Samaj Rd, Ghaffar Market, Block 23, Beadonpura, Karol Bagh, Delhi, 110005, India;28.649652;77.190209;good
OFFICE, CAMBRIDGE FOUNDATION SCHOOL, Major Sudesh Kumar Marg, Block J, Rajouri Garden Extension, Rajouri Garden, Delhi, 110027, India;28.639749;77.114279;good
C-122, Phase I, Telecom Staff Quaters, Vivek Vihar, Delhi, 110095, India;28.671901;77.32275;good
460, Block J, Rajouri Garden Extension, Rajouri Garden, Delhi, 110027, India;28.643741;77.113036;good
R35V+5Q6, Holambi Main Rd, Holambi Kalan, Delhi, 110082, India;28.807749;77.094216;good
JandK Pocket Dilshad Garden, Chikamberpur Village, Chikamberpur, Delhi, 110095, India;28.679243;77.323901;bad
C-110, Aggra Nagar, Gali No 1, Nangloi, Gulshan Park, Mubarkpur, Delhi, 110041, India;28.686508;77.057299;bad
Bensups Hospital, Sector 12, Dwarka, Sector 7 Extension, Pocket 4, Sector 12 Dwarka, Dwarka, Delhi, 110075, India;28.592677;77.044072;good
H42, Shastri Park Rd, Kirti Nagar, Block H, Shastri Park, Shahdara, Delhi, 110053, India;28.675394;77.259258;bad
Surajmal Stadium, Camp No 3, Block X, JJ Colony No 3, Nangloi, Delhi, 110041, India;28.682032;77.072977;bad
1, Gali No. 110, Block B, Sant Nagar, Burari, Delhi, 110084, India;28.744939;77.203315;bad
Shop No. E, 6, Rajan Babu Rd, Block E, Adarsh Nagar, Delhi, 110033, India;28.721073;77.176291;bad
198, Qutab Rd, Ram Nagar Market, Teliwara, Sadar Bazaar, Delhi, 110006, India;28.648585;77.217864;bad
P6CC+362, Gandhi Vihar, Gopalpur Village, Delhi, 110009, India;28.720812;77.220342;bad
P5H6+R37, Ramgarh Village, Jahangirpuri, Delhi, 110033, India;28.729377;77.160117;bad
01, Kashmere Gate, Delhi, 110006, India;28.666602;77.229617;bad
Raj Ghat, Delhi, 110002, India;28.641843;77.246794;bad
Sunder Apartment, Block J, Reserve Bank Enclave, Paschim Vihar, Delhi, 110063, India;28.665305;77.092308;good
Rohini West station, Rohini, Delhi, 110085, India;28.714438;77.116079;bad
UG 5 Vikas Tower Rani Bagh Commercial Complex, Plot No, 31, Rd Number 44, Saint Nagar Delhi, Rani Bagh, Pitam Pura, Delhi, 110034, India;28.689169;77.133642;bad
1143/2, Nala Rd, Paul Colony, Rithala, Rohini, Delhi, 110085, India;28.723108;77.10434;bad
Shastri Park, Metro Vihar, Shastri Park, Jagjit Nagar, Delhi, 110053, India;28.668821;77.249385;bad
21, Hudson Ln, GTB Nagar, Delhi, 110009, India;28.697377;77.204575;good
A-61, Ramesh Nagar, Opposite Metro Pillar No. 343 New Delhi, Black B, Namdhari Colony, Ramesh Nagar, Delhi, 110015, India;28.653507;77.13481;good
C-110, Aggra Nagar, Gali No 1, Nangloi, Gulshan Park, Mubarkpur, Delhi, 110041, India;28.686508;77.057299;good
P477+HFQ, Sector 6 Rd, Sector 6, Rohini, Delhi, 110085, India;28.71402;77.113725;good
M39W+JF4, Rd Number 30, Reserve Bank Enclave, Paschim Vihar, Delhi, 110063, India;28.66912;77.096109;bad
5123, near Transformer, Rui Mandi, Sadar Bazaar, Delhi, 110006, India;28.659262;77.213009;bad
A1, 24, near Lancer convent School, Prashant Vihar, Sector 14, Rohini, Delhi, 110085, India;28.709195;77.133919;bad
J-2/11 first floor, Block J, Rajouri Garden, Delhi, 110027, India;28.647464;77.119079;good
145, C Block, Block D, JJ Colony, Uttam Nagar, Delhi, 110066, India;28.62496;77.06527;bad
37, Bhiku Ram Jain Marg - Rajpur Rd, Kamla Nehru Ridge, Civil Lines, Delhi, 110007, India;28.679861;77.218122;good
64, New Shabhapur Gujran, Shastri Park, Karawal Nagar, Delhi, 110094, India;28.670701;77.244521;bad
C26a Mansarovar Garden, Block H, Kirti Nagar, Delhi, 110015, India;28.650001;77.144029;good
OFFICE, CAMBRIDGE FOUNDATION SCHOOL, Major Sudesh Kumar Marg, Block J, Rajouri Garden Extension, Rajouri Garden, Delhi, 110027, India;28.639749;77.114279;bad
R35V+5Q6, Holambi Main Rd, Holambi Kalan, Delhi, 110082, India;28.807749;77.094216;good
Rohini West station, Rohini, Delhi, 110085, India;28.71471;77.116394;bad
Plot 6, Sector 19B, Dwarka, Delhi, 110075, India;28.578172;77.0428;bad
105 TO 116, Pocket D, Sector 17 Dwarka, Dwarka, Delhi, 110075, India;28.594314;77.031905;bad
Bhama Shah Marg, Police Ground, Kingsway Camp, GTB Nagar, Delhi, 110009, India;28.697874;77.196003;good
Mayapuri, Block WH, Mayapuri Industrial Area Phase I, Mayapuri, Delhi, 110064, India;28.636912;77.128975;bad
A-29, Ramgarh, Bhalswa Jahangirpuri, Jahangirpuri, Delhi, 110033, India;28.725987;77.162683;bad
20/56, Rd Number 3, West Punjabi Bagh, Punjabi Bagh, Delhi, 110026, India;28.667067;77.125352;good
M285+W9V, UER II, Bakkarwala, Delhi, 110041, India;28.666565;77.007983;good
A1/92, Block B 4, Harijan Colony, Sultanpuri, Delhi, 110086, India;28.694089;77.074091;bad
ESI-Basaidarapur, Shivaji Enclave, Tagore Garden Extension, Delhi, 110027, India;28.657795;77.127014;bad
Dwarka Sector 9 metro station, Dwarka, Delhi, 110075, India;28.574665;77.065091;bad
J277+RC2, Jai Vihar Colony, Masudabad, Najafgarh, Delhi, 110043, India;28.614495;77.013568;good
682, near Metro Pillar Number 460, Nangloi Extension, Uttam Nagar, Delhi, 110059, India;28.682269;77.046701;bad
M5XM+33G, Dilkhush Bagh Industrial Area, Ashok Vihar, Delhi, 110052, India;28.69706;77.182119;bad
Susram niwas, plot no. 128,shiv vihar Vikas Nagar, uttam nagar Behind kamlesh public school and, near by Gupta Timber, Green Enclave, Hastsal, Delhi, 110059, India;28.646947;77.051014;bad
Q47G+J57, Khera Kalan Rd, Siraspur, Delhi, 110042, India;28.764192;77.125109;bad
Shanti Nagar, Shanti Nagar, Tri Nagar, Delhi, 110035, India;28.677754;77.167063;bad
A 7 second floor, Hari Enclave, Hari Nagar, Delhi, 110064, India;28.625638;77.110242;bad
D/4-230, Jagdamba Market Rd, Karan Vihar Phase IV, Karan Vihar, Sultanpuri, Delhi, 110086, India;28.700799;77.074075;bad
A2/2/366, Sultanpuri, Delhi, 110086, India;28.693571;77.07709;good
Phase-2 Shed No- 1/10, 1/11, DSIDC Complex Near New Police station, Nand Nagri, Mandoli, Delhi, 110093, India;28.698453;77.309321;bad
P4G7+9RG, Swarn Jayanti Park, Sector 12, Rohini, Delhi, 110085, India;28.725531;77.114259;good
A-2 DLF Ankur Vihar Ankur Vihar, DLF Ankur Vihar, Haiderpur, Shalimar Bagh, Delhi, 201102, India;28.717453;77.150867;bad
P4W6+526, near Hanuman Mandir old Vikram dharamkanta, Shahbad Daulatpur Village, Rohini, Delhi, 110042, India;28.745451;77.109978;bad
Rohini West, Bhagawan M, Bhagwan Mahavir Marg, Swarn Jayanti Park, Sector 10, Rohini, Delhi, 110085, India;28.714915;77.115391;bad
Shivanika Gas Agency, Rd Number 71, Vivek Vihar, Delhi, 110095, India;28.665771;77.312773;good
GULAB BHAWAN, BAHADUR SHAH ZAFAR MARG, Bahadur Shah Zafar Marg, Vikram Nagar, Delhi, 110002, India;28.631098;77.241119;good
Shamshan Ghat Pusta, Geeta Colony, Delhi, 110031, India;28.655392;77.26388;good
P477+HFQ, Sector 6 Rd, Sector 6, Rohini, Delhi, 110085, India;28.71402;77.113725;good
M5XM+33G, Dilkhush Bagh Industrial Area, Ashok Vihar, Delhi, 110052, India;28.69706;77.182119;bad
P3WR+QQF, Bawana Rd, Block B, Prahladpur, Rohini, Delhi, 110042, India;28.747058;77.092314;good
Shop No 7773, Sadar Nala Road, Nawab Rd, near kishan masale wala, Basti Harphool Singh, Sarai Khalil, Sadar Bazaar, Delhi, 110006, India;28.657562;77.210788;bad
P4G7+9RG, Swarn Jayanti Park, Sector 12, Rohini, Delhi, 110085, India;28.725531;77.114259;good
M66H+4CM, Shyama Prasad Mukherjee Marg, Old Delhi, Delhi, 110006, India;28.660081;77.22866;good
M737+RXH, Pushta Rd, Geeta Colony, Delhi, 110031, India;28.654183;77.264872;bad
Karnal Bypass, Rajiv Nagar, Bhalswa, Delhi, 110042, India;28.7375;77.155464;bad
P5Q3+5PC, GT Karnal Rd, Block AG, Sanjay Gandhi Transport Nagar, Delhi, 110042, India;28.737922;77.154362;bad
E -1582, Block A, Jahangirpuri, Delhi, 110033, India;28.734409;77.173086;bad
G-15, Ground Floor, Vikas Mall Opp. Shahdara Metro Station, Raj Block, Navin Shahdara, Shahdara, Delhi, 110032, India;28.675267;77.288054;bad
Shop No 7773, Sadar Nala Road, Nawab Rd, near kishan masale wala, Basti Harphool Singh, Sarai Khalil, Sadar Bazaar, Delhi, 110006, India;28.657562;77.210788;bad
C-110, Aggra Nagar, Gali No 1, Nangloi, Gulshan Park, Mubarkpur, Delhi, 110041, India;28.686508;77.057299;bad
2951, Outer Ring Rd, Bhalswa Jahangirpuri, Jahangirpuri, Delhi, 110033, India;28.734042;77.17709;bad
P2J3+VF8, Kanjhawala Village, Delhi, 110081, India;28.73221;77.003576;bad
01, Kashmere Gate, Delhi, 110006, India;28.666602;77.229617;bad
A block, Sector 15, Pocket 2, Sector 15A, Rohini, Delhi, 110089, India;28.729831;77.129095;bad
C-110, Aggra Nagar, Gali No 1, Nangloi, Gulshan Park, Mubarkpur, Delhi, 110041, India;28.686508;77.057299;bad
C-110, Aggra Nagar, Gali No 1, Nangloi, Gulshan Park, Mubarkpur, Delhi, 110041, India;28.686508;77.057299;bad
125, Pocket E 20, Pocket 20, Sector 3E, Rohini, Delhi, 110085, India;28.699593;77.104541;bad
New Sabzi Mandi, A Block, Panchwathi, Azadpur, Delhi, 110033, India;28.714096;77.172664;bad
A-2/65, Hastsal Road, Uttam Nagar, Near Gurudwara, A Block, Uttam Nagar, Delhi, 110059, India;28.627844;77.059531;bad
Bhalswa Xing, Bhalswa Jahangir Village, Bhalswa, Delhi, 110033, India;28.737665;77.16568;bad
J7PR+JV3, Block C, C Block, Preet Vihar, Delhi, 110092, India;28.636646;77.292;bad
198/C, Pushpanjali, Karkardooma, Anand Vihar, Delhi, 110092, India;28.654176;77.308822;bad
P477+HFQ, Sector 6 Rd, Sector 6, Rohini, Delhi, 110085, India;28.71402;77.113725;bad
M5Q3+V54, Mahatma Gandhi Rd, Dr Lohia Industrial Area, Netaji Subhash Place, Tri Nagar, Delhi, 110034, India;28.689598;77.152723;good
A- block, Maharishi Balaram Marg, JJ Colony, Shakurpur Colony, Shakurpur, Delhi, 110034, India;28.686508;77.147072;bad
B2/392, sector 6, rohini, near west rohini metro station, Sector 6, Rohini, Delhi, 110085, India;28.714654;77.115768;bad
M64Q+8F Delhi, India;28.655835;77.238711;good
EMERGENCY, GOVIND BALLABH PANT HOSPITAL, 64 Khamba, Delhi, 110002, India;28.6388;77.234446;bad
635, Banda Bahadur Marg, Mukherjee Nagar, Delhi, 110009, India;28.709651;77.213965;good
12, Block E, Nirman Vihar, Preet Vihar, Delhi, 110092, India;28.637364;77.288573;good
43, Sector 15, Pocket 12, Sector 15F, Rohini, Delhi, 110089, India;28.733097;77.129369;good
01, Kashmere Gate, Delhi, 110006, India;28.666602;77.229617;bad
E -1582, Block A, Jahangirpuri, Delhi, 110033, India;28.734409;77.173086;bad
Dwarka Sector-18A, Dwarka, Delhi, 110075, India;28.588488;77.040699;good
Surajmal Stadium, Camp No 3, Block X, JJ Colony No 3, Nangloi, Delhi, 110041, India;28.682034;77.072958;bad
Q6H7+4M Delhi, India;28.777793;77.214174;bad
M24R+WVW, Nathan Vihar, Ranhola, Delhi, 110041, India;28.657152;77.042172;good
64, New Shabhapur Gujran, Shastri Park, Karawal Nagar, Delhi, 110094, India;28.670579;77.244761;bad
R4VH+7RJ, Singhola, Delhi, 110036, India;28.843016;77.13061;bad
34/1, Double Storey, Tihar Colony, Ashok Nagar|New, Delhi, 110018, India;28.616615;77.101209;bad
Peera Garhi Metro Station, M3HV+V63, Ekta Enclave, Peeragarhi Village, Paschim Vihar, Delhi, 110087, India;28.679594;77.092934;bad
P646+JVQ, Banda Bahadur Marg, Indra Vihar, Mukherjee Nagar, Delhi, 110009, India;28.706599;77.212152;good
J7PR+JV3, Block C, C Block, Preet Vihar, Delhi, 110092, India;28.636646;77.292;bad
Shahdara Border, Delhi, 110095, India;28.676371;77.322048;bad
HALL, RAJDHANI COLLEGE, Block C, Bali Nagar, Delhi, 110015, India;28.655158;77.126449;bad
J7V2+44 Delhi, India;28.642848;77.250284;good
M6P4+VF9, Sudhir Bose Marg, near Ramjas College University Of Delhi, Law Faculty, University Enclave, Delhi, 110007, India;28.687013;77.206149;good
C-110, Aggra Nagar, Gali No 1, Nangloi, Gulshan Park, Mubarkpur, Delhi, 110041, India;28.686508;77.057299;bad
H363+P4 Delhi, India;28.56185;77.052755;good
Ocs Apartment Block-A16, OCS APARTMENT, Mayur Vihar, Delhi, 110091, India;28.598999;77.299569;good
A4/246, State Bank Road, near State Bank of India SULTANPURI, Sultanpuri, Delhi, 110086, India;28.695896;77.076581;bad
CANTEEN, LOK NAYAK HOSPITAL, LNJP Colony, Delhi, 110002, India;28.638973;77.237999;bad
43, Sector 15, Pocket 12, Sector 15F, Rohini, Delhi, 110089, India;28.733097;77.129369;bad
M4V3+JJ3, Outer Ring Rd, Sector 2, Pitam Pura, Delhi, 110083, India;28.693969;77.104219;bad
25/65, Road No.66, West Punjabi Bagh, Punjabi Bagh, Delhi, 110026, India;28.667724;77.125534;good
BA94, Gyan Shakti Mandir Marg, Block BA, West Shalimar Bagh, Shalimar Bagh, Delhi, 110088, India;28.71537;77.154573;good
M7JG+2QW, Rd Number 65, Janta Colony, Subhash Park, Shahdara, Delhi, 110032, India;28.680288;77.277096;bad
2 Shanker Vihar, Metro Pillar Number 75, Vikas Marg, Block C, Bharati Artist Colony, Preet Vihar, Delhi, 110092, India;28.638368;77.290056;good
21, G/F, Site, 1793, Kotla Marg, opp. Balbhaban, Mata Sundari Railway Colony, Mandi House, Delhi, 110002, India;28.63174;77.23589;bad
Jahangir Puri Metro Station, Bhalswa Jahangirpuri, Jahangirpuri, Delhi, 110033, India;28.726734;77.162118;bad
5001, lal gali, Kucha Rehman Gali, New Krishna Cloth Market, Katra Nawab, chandni chow, Delhi, 110006, India;28.656499;77.226914;bad
M7CC+P93, Grand Trunk Rd, Phase 1, Block G, Shahdara, Delhi, 110031, India;28.671688;77.271123;bad
89a, GT Karnal Rd, Block L, Jahangirpuri Industrial Area, Shalimar Garden, Delhi, 110088, India;28.732421;77.155567;bad
H3P2+4G3, Sector 11 Dwarka, Dwarka, Delhi, 110075, India;28.585521;77.050862;good
Karorimal College, Delhi, 110007, India;28.683709;77.207974;good
287, Block C4G, Block C4F, Janakpuri, Delhi, 110058, India;28.616403;77.091232;good
1164, Pocket 7 Rd, Pocket 7, Sector 12 Dwarka, Dwarka, Delhi, 110078, India;28.590502;77.043353;bad
Paschim Vihar Water Tank, A 2B Block, Paschim Vihar, Delhi, 110063, India;28.668718;77.099495;bad
Ballimaran panjabi phatk Ol india, Baradari, Chandni Chowk, Delhi, 110006, India;28.652867;77.226961;bad
C-110, Aggra Nagar, Gali No 1, Nangloi, Gulshan Park, Mubarkpur, Delhi, 110041, India;28.686508;77.057299;good
1359/2, Kacha Bagh, Katra Lehswan, Chandni Chowk, Delhi, 110006, India;28.657258;77.229701;bad
1/3224, Main Mandoli Rd, near Aggarwal sweets, Ram Nagar Extension, Ram Nagar, Shahdara, Delhi, 110032, India;28.682764;77.296176;bad
J6Q9+9WH, State Entry Rd, Railway Colony, Delhi, 110002, India;28.638368;77.220215;good
No. D-6 320,, Sir Chotu Ram Marg, Sector 6, Rohini, Delhi, 110085, India;28.715757;77.112126;good
Haiderpur Badli Mor Metro Station, C and D Block, Shalimar Place Site, Shalimar Bagh, Delhi, 110088, India;28.729825;77.148222;bad
Police Station Kirti Nagar, Kirti Nagar, Delhi, 110015, India;28.648638;77.142945;good
A-2 DLF Ankur Vihar Ankur Vihar, DLF Ankur Vihar, Haiderpur, Shalimar Bagh, Delhi, 201102, India;28.717453;77.150867;bad
Shop No 7773, Sadar Nala Road, Nawab Rd, near kishan masale wala, Basti Harphool Singh, Sarai Khalil, Sadar Bazaar, Delhi, 110006, India;28.657562;77.210788;bad
22, Hathora Ram Park Rd, Keshav Puram, Kishan Ganj, Delhi, 110007, India;28.687118;77.157996;good
M7C8+98P, Phase 1, Block B, Shahdara, Delhi, 110053, India;28.670909;77.265861;bad
e-block, 1181, Bhalswa Jahangirpuri, Jahangirpuri, Delhi, 110033, India;28.725453;77.163074;bad
P477+HFQ, Sector 6 Rd, Sector 6, Rohini, Delhi, 110085, India;28.71402;77.113725;bad
P5CR+PM Delhi, India;28.721831;77.191647;bad
Indira Gandhi Stadium, IG Indoor Stadium, ITO, Vikram Nagar, Delhi, 110002, India;28.633948;77.246719;good
H325+F6 Delhi, India;28.551131;77.058072;bad
21, Indra Vihar, Mukherjee Nagar, Delhi, 110009, India;28.705033;77.213269;bad
H2RR+QCC, Sector 12 Dwarka, Dwarka, Delhi, 110075, India;28.592044;77.041055;bad
RESIDENCE-OFFICE: XIV/11263, SECOND FLOOR KELA KOTHI, New Rohtak Rd, near TIBBIA COLLEGE CROSSING AT, Block 69B, Dori Walan, Karol Bagh, Delhi, 110005, India;28.656067;77.197427;bad
jama masjid, M62M+79G, Jama Masjid, Chandni Chowk, Delhi, 110006, India;28.650656;77.233429;bad
Rohini West station, Rohini, Delhi, 110085, India;28.71471;77.116394;bad
M2JH+W8M, Rohtak Rd, Smarak Park, Mundka, Delhi, 110041, India;28.682435;77.028325;bad
D-10/85, Bhagwan Mahavir Marg, Pocket 10, Sector 7D, Rohini, Delhi, 110085, India;28.710246;77.12214;good
P477+HFQ, Sector 6 Rd, Sector 6, Rohini, Delhi, 110085, India;28.71402;77.113725;bad
Plot 6, Sector 19B, Dwarka, Delhi, 110075, India;28.578172;77.0428;bad
2, Red Cross Rd, Rajpath Area, line1, Delhi, 110001, India;28.611803;77.212004;good
SECURITY ROOM, DTC BUS DEPOT, Block G-3, Sector 16, Rohini, Delhi, 110085, India;28.730283;77.122503;good
424,forth floor, dmall Twin district centre, Swarn Jayanti Park, Sector 10, Rohini, Delhi, 110085, India;28.716155;77.113602;bad
C-110, Aggra Nagar, Gali No 1, Nangloi, Gulshan Park, Mubarkpur, Delhi, 110041, India;28.686508;77.057299;bad
Bensups Hospital, Sector 12, Dwarka, Sector 7 Extension, Pocket 4, Sector 12 Dwarka, Dwarka, Delhi, 110075, India;28.592677;77.044072;good
Main road raghubarpura no 1, near Shani mandir, Raghubarpura 1, Seelampur, Shahdara, Delhi, 110031, India;28.663493;77.271377;bad
P4F3+P28, Bagga Link Rd, Paul Colony, Rithala, Rohini, Delhi, 110085, India;28.72444;77.102378;bad
B3, 24, Sultanpuri, Delhi, 110086, India;28.697872;77.075583;good
125, Pocket E 20, Pocket 20, Sector 3E, Rohini, Delhi, 110085, India;28.699593;77.104541;good
Tagore Garden Metro Station / Tatarpur, Block BF, Tagore Garden, Tagore Garden Extension, Delhi, 110027, India;28.644139;77.113304;bad
H3R4+944, Sector 11 Dwarka, Dwarka, Delhi, 110075, India;28.591037;77.055303;good
J7W3+JR Delhi, India;28.646614;77.254501;bad
Rohini West station, Rohini, Delhi, 110085, India;28.71471;77.116394;bad
352, Vardhman DEE CEE Plaza, Pocket -7, Dwarka Sector-11, Pocket 3, Sector 11 Dwarka, Dwarka, Delhi, 110075, India;28.586482;77.0494;good
M6P7+J5 Delhi, India;28.686538;77.212983;good
M8X7+322, Bank Colony, Nand Nagri, Mandoli, Delhi, 110093, India;28.697834;77.31274;bad
Shop No: 35 Ground, Cross River Mall, Vishwas Nagar Extension, Vishwas Nagar, Shahdara, Delhi, 110032, India;28.656726;77.30198;bad
E-60,Gali No 1.Tarang Appartement, West Vinod Nagar, Vinod Nagar, Block B, Block D, Mandawali, Delhi, 110092, India;28.623786;77.29712;good
C-110, Aggra Nagar, Gali No 1, Nangloi, Gulshan Park, Mubarkpur, Delhi, 110041, India;28.686508;77.057299;bad
Red Cross Hospital New Seema Puri, Aradhak Marg, Chikamberpur Village, Chikamberpur, Delhi, 110095, India;28.678017;77.323201;bad
A-20A, Wazirabad Rd, opp. Yamuna Vihar, nearby Victoria Public School, Block B, Brij Puri, Shahdara, Delhi, 110094, India;28.703022;77.268997;bad
Haiderpur Badli Mor, C and D Block, Shalimar Place Site, Shalimar Bagh, Delhi, 110088, India;28.730031;77.149475;good
251/3, Post Office Block, Block D, Krishna Nagar, Delhi, 110051, India;28.660285;77.281301;bad
WZ-1, Metro Station, Najafgarh Rd, Titarpur, Tagore Garden, Tagore Garden Extension, Delhi, 110027, India;28.644389;77.113722;good
C-110, Aggra Nagar, Gali No 1, Nangloi, Gulshan Park, Mubarkpur, Delhi, 110041, India;28.686508;77.057299;bad
B-99,Pushpanjali Enclave, Dr KB Hedgewar Marg, Pushpanjali Enclave, Pitam Pura, Delhi, 110034, India;28.696242;77.111939;bad
J5VV+MX Delhi, India;28.644147;77.194878;good
M7CW+PH5, Jawala Nagar, Shahdara, Delhi, 110032, India;28.671705;77.296385;bad
Rohini West station, Rohini, Delhi, 110085, India;28.71471;77.116394;good
66/38, Narain Market, Ajmeri Gate, Delhi, 110006, India;28.646944;77.224763;bad
858, Sector 19, Pocket 3, Dwarka, Delhi, 110075, India;28.583869;77.043747;bad
5, Under Hill Ln, Ludlow Castle, Civil Lines, Delhi, 110054, India;28.675227;77.221578;good
38, Mahatma Gandhi Rd, Block A, Wazirpur Industrial Area, Adarsh Nagar, Delhi, 110033, India;28.701027;77.161356;good
B1/628,3rd, Metro Pillar Number 519, 570, Prem Nagar, Janakpuri, Delhi, 110058, India;28.636203;77.095607;good
5, Pocket E, Sarita Vihar, Delhi, 110076, India;28.532253;77.298405;bad
J3JJ+8GH, Janakpuri District Center, Janakpuri, Delhi, 110058, India;28.630964;77.08124;good
Shop No.G-2135, Pusta Road, Shree Nagar Colony, Block H, West Karawal Nagar, Karawal Nagar, Delhi, 110094, India;28.727555;77.263894;good
Nangli Poona, Nangli Puna, Delhi, 110036, India;28.773432;77.14333;good
A3/6, Sultanpuri, Delhi, 110086, India;28.695376;77.074674;bad
P5RF+47 Delhi, India;28.740283;77.173217;bad
P6PQ+WF Delhi, India;28.737372;77.238698;good
B-291, 2nd floor, Outer Ring Rd, above globus honda showroom, Block B, Saraswati Vihar, Pitam Pura, Delhi, 110034, India;28.699215;77.122941;good
Shastri Park, Metro Vihar, Shastri Park, Jagjit Nagar, Delhi, 110053, India;28.668821;77.249385;bad
C-110, Aggra Nagar, Gali No 1, Nangloi, Gulshan Park, Mubarkpur, Delhi, 110041, India;28.686508;77.057299;bad
C-110, Aggra Nagar, Gali No 1, Nangloi, Gulshan Park, Mubarkpur, Delhi, 110041, India;28.686508;77.057299;bad
198, Qutab Rd, Ram Nagar Market, Teliwara, Sadar Bazaar, Delhi, 110006, India;28.648585;77.217864;bad
C-110, Aggra Nagar, Gali No 1, Nangloi, Gulshan Park, Mubarkpur, Delhi, 110041, India;28.686508;77.057299;bad
Delhi,SHAHDARA MANSAROVAR PARK Near Railway Line Phatak Jhoggi Jhopdi Metro pillar No:11 ( AMIT Near Apna Ghar, Metro Pull Ke Niche, Ekta Bal Seva Kendra, Shahdara, Delhi, 110032, India;28.674;77.297451;bad
Sarai Rohilla Govt Qtrs, Block 9, Railway Colony, Karol Bagh, Delhi, 110005, India;28.661211;77.185167;bad
P4C9+PRW, Swarn Jayanti Park, Sector 10, Rohini, Delhi, 110085, India;28.722288;77.119614;good
01, Kashmere Gate, Delhi, 110006, India;28.666602;77.229617;bad
A2/127, Sultanpuri, Delhi, 110086, India;28.693825;77.076328;bad
24/155, G T Road, Shakti Nagar, Shakti Nagar, Jawahar Nagar, Kamla Nagar, Delhi, 110007, India;28.678611;77.20086;bad
J336+F4R, Bharat Vihar Rd, Block C, Madhu Vihar, Delhi, 110059, India;28.603644;77.060272;good
K-140, Meena BazarMeena Bazaar, Meena Bazaar, Jama Masjid, Old Delhi, Delhi, 110006, India;28.650741;77.234971;bad
C-110, Aggra Nagar, Gali No 1, Nangloi, Gulshan Park, Mubarkpur, Delhi, 110041, India;28.686508;77.057299;bad
J334+WPF, Som Bazar Rd, Block A, Raja Puri, Matiala, Delhi, 110059, India;28.604805;77.056785;bad
B-70X, DDA Flat, Jahangir Puri, Block A, Rajasthan Udyog Nagar, Jahangirpuri, Delhi, 110033, India;28.724815;77.163541;good
P5RF+47 Delhi, India;28.740283;77.173217;good
1754 B, GALI NO. 129, opp. Metro Pillar Number 218, Block B, Shanti Nagar, Tri Nagar, Delhi, 110035, India;28.677505;77.16721;bad
P4C9+PRW, Swarn Jayanti Park, Sector 10, Rohini, Delhi, 110085, India;28.722288;77.119614;bad
OFFICE, ROSARY SENIOR SECONDARY SCHOOL, Dhirpur Village, Model Town, Delhi, 110009, India;28.714316;77.202075;bad
C-110, Aggra Nagar, Gali No 1, Nangloi, Gulshan Park, Mubarkpur, Delhi, 110041, India;28.686508;77.057299;bad
B-70X, DDA Flat, Jahangir Puri, Block A, Rajasthan Udyog Nagar, Jahangirpuri, Delhi, 110033, India;28.724456;77.163804;good
ISBT Ring Road, Civil Lines, Delhi, 110054, India;28.671234;77.231432;bad
ISBT Ring Road, Civil Lines, Delhi, 110054, India;28.671234;77.231432;bad
702, Banda Bahadur Marg, Mukherjee Nagar, Delhi, 110009, India;28.711878;77.215195;bad
78B, Sector 19, Rohini, Delhi, 110042, India;28.734186;77.138398;bad
OUT PATIENT DEPARTMENT BLOCK, ESI HOSPITAL-2, Sector 15, Sector 15A, Rohini, Delhi, 110085, India;28.727928;77.125775;bad
900, Best Sky Tower, Netaji Subhash Palace, Pitampura, Pitampura, Delhi, 110034, India;28.696285;77.153026;bad
ISBT Ring Road, Civil Lines, Delhi, 110054, India;28.671234;77.231432;bad
79, Block K, Majnu-ka-tilla, PUNJABI BASTI, Delhi, 110054, India;28.699879;77.226569;bad
Rohini West, Bhagawan M, Bhagwan Mahavir Marg, Swarn Jayanti Park, Sector 10, Rohini, Delhi, 110085, India;28.714936;77.115361;good
Welcome Metro Station, Phase 4, Block C, Shahdara, Delhi, 110032, India;28.672438;77.276392;bad
P4G7+9RG, Swarn Jayanti Park, Sector 12, Rohini, Delhi, 110085, India;28.725531;77.114259;good
629, Hamilton Rd, Chhota Bazar, South Indian Madrasi Colony, Kashmere Gate, Delhi, 110006, India;28.662509;77.226967;bad
Q3PX+V6 Delhi, India;28.787228;77.09809;good
J6MX+G27, IG Indoor Stadium, ITO, Vikram Nagar, Delhi, 110002, India;28.634034;77.247155;bad
Ashirwad Apartments, WZ-10, Bal Udyan Road, Bal Udhyan Rd, Param Puri, Uttam Nagar, Delhi, 110059, India;28.617827;77.057882;bad
6, Old Delhi, Delhi, 110006, India;28.661427;77.230227;bad
BHAGWAN DASS AND SONS 3437, CHOWK HAUZ QAZI Chawri Bazar Metro Gate No-2, Bazar Sirkiwalan, Khush Dil, Chandni Chowk, Delhi, 110006, India;28.649362;77.226651;good
J7PR+JV3, Block C, C Block, Preet Vihar, Delhi, 110092, India;28.636646;77.292;good
M253+77 Delhi, India;28.658188;77.003206;good
Rohini West station, Rohini, Delhi, 110085, India;28.71471;77.116394;good
110087, Ekta Enclave, Peeragarhi Village, Paschim Vihar, Delhi, 110087, India;28.679615;77.092741;good
Delhi Secretariat, Gas Turbine Power Station, IP Estate, Delhi, 110002, India;28.627965;77.252393;bad
629, Hamilton Rd, Chhota Bazar, South Indian Madrasi Colony, Kashmere Gate, Delhi, 110006, India;28.662509;77.226967;bad
M64Q+8F Delhi, India;28.655835;77.238711;good
Mukherji Nagar Baandh, Gopalpur Village, Delhi, 110009, India;28.715496;77.216157;bad
OPP. Splash water park, near Indian petrol pump, Bankoli Village, Delhi, 110036, India;28.802569;77.144443;bad
Bawana Village, Bawana Village, Bawana, Delhi, 110039, India;28.799932;77.035401;good
2nd Floor, A-33, Ring Rd, Block A2, Block A, Rajouri Garden, Delhi, 110027, India;28.648475;77.125581;bad
M69W+VP Delhi, India;28.669665;77.246866;bad
Old, Kakrola Rd, Block X, Sector 16B Dwarka, Najafgarh, Delhi, 110043, India;28.606126;77.008513;bad
M7GW+8W5, Shahdara Flyover, East Ram Nagar, Ram Nagar, Shahdara, Delhi, 110032, India;28.675734;77.297334;bad
Inderlok, M5F9+3QV, Phase 1, Shivaji Nagar, Daya Basti, Delhi, 110035, India;28.672426;77.1696;good
125, Pocket E 20, Pocket 20, Sector 3E, Rohini, Delhi, 110085, India;28.699593;77.104541;good
Shop no E- 1451 Jhangirpuri, Bhalswa Jahangirpuri, Jahangirpuri, Delhi, 110033, India;28.734904;77.174732;bad
M5WX+74J, Police Ground, Kingsway Camp, GTB Nagar, Delhi, 110009, India;28.696588;77.197422;bad
Indraprastha International School, Sector 6, Sector 10 Dwarka, Dwarka, Delhi, 110075, India;28.585686;77.062258;bad
5006, Jaisav Place, Bazar Sirkiwalan, Kaccha Pandit Main Bazar, Hauz Qazi, Chandni Chowk, Delhi, 110006, India;28.650633;77.225249;good
M6CR+X83, Baba Shyamgiri Mandir Marg, Metro Vihar, Shastri Park, Shahdara, Delhi, 110031, India;28.673137;77.240008;good
4040, Chawri Bazar Rd, Raghu Ganj, Manohar Market, Chawri Bazar, Chandni Chowk, Delhi, 110006, India;28.650161;77.229501;bad
89, heere colony, Hira Colony, Libas Pur Village, Samaypur, Delhi, 110042, India;28.754342;77.132835;bad
A- block, Maharishi Balaram Marg, JJ Colony, Shakurpur Colony, Shakurpur, Delhi, 110034, India;28.686508;77.147072;bad
E-2/256, Sultanpuri, Delhi, 110086, India;28.693938;77.076779;bad
860, Nai Sarak, Chandni Chowk, Delhi, 110006, India;28.655112;77.227501;bad
M3WF+GRG, Mangal Bazar Rd, Sultanpuri, Delhi, 110086, India;28.696385;77.07437;bad
P62H+P42, Outer Ring Rd, New Aruna Colony, Majnu-ka-tilla, Timarpur, Delhi, 110054, India;28.701844;77.22758;good
Plot 10, Tyagi Rd, Sector 19B, Dwarka, Delhi, 110075, India;28.573537;77.043706;good
629, Hamilton Rd, Chhota Bazar, South Indian Madrasi Colony, Kashmere Gate, Delhi, 110006, India;28.662509;77.226967;bad
Hno130, Block A, Anand Nagar, Inderlok, Delhi, 110035, India;28.675571;77.168053;bad
A-2 DLF Ankur Vihar Ankur Vihar, DLF Ankur Vihar, Haiderpur, Shalimar Bagh, Delhi, 201102, India;28.717453;77.150867;bad
E-91, Block E, Jeevan Niketan, Paschim Vihar, Delhi, 110087, India;28.662527;77.083117;good
Veer Apartment, Pocket 28, Sector 13, Rohini, Delhi, 110085, India;28.723454;77.12494;good
11/121 double story, Mall Rd, near vishalmega mart, Old Market, Block 2, Tilak Nagar, Delhi, 110018, India;28.636079;77.094312;good
M66H+4CM, Shyama Prasad Mukherjee Marg, Old Delhi, Delhi, 110006, India;28.660081;77.22866;bad
P477+HFQ, Sector 6 Rd, Sector 6, Rohini, Delhi, 110085, India;28.71402;77.113725;good
Moti Nagar Ind Area / Kirti Nagar, Block 7, Kirti Nagar Industrial Area, Kirti Nagar, Delhi, 110015, India;28.651595;77.145495;bad
Shop No.G-21, Galleria, Building, Plot No.2, Pocket 3, Sector 12 Dwarka, Dwarka, Delhi, 110075, India;28.59652;77.049383;bad
C-110, Aggra Nagar, Gali No 1, Nangloi, Gulshan Park, Mubarkpur, Delhi, 110041, India;28.686508;77.057299;bad
M5XM+33G, Dilkhush Bagh Industrial Area, Ashok Vihar, Delhi, 110052, India;28.69706;77.182119;bad
Ekta Apartment, J342+666, Dwarka Sector-3, Dwarka, Delhi, 110078, India;28.605311;77.050178;bad
1099, opposite side, Kucha Natwa, Chandni Chowk, Delhi, 110006, India;28.657162;77.228033;bad
D-1290, Sarai Pipal Thala Village, New Sabzi Mandi, Azadpur, Delhi, 110033, India;28.715245;77.166098;bad
M6R6+C4 Delhi, India;28.69105;77.210298;bad
236, Kucha Tiku Shah, Ajmeri Gate, Delhi, 110006, India;28.648077;77.225683;bad
549, C and D Block, Shalimar Place Site, Shalimar Bagh, Delhi, 110088, India;28.730567;77.150311;bad
64, New Shabhapur Gujran, Shastri Park, Karawal Nagar, Delhi, 110094, India;28.670701;77.244521;bad
AH1, Block E, Sudershan Park, Delhi, 110026, India;28.663869;77.13154;good
Sector 10, Dwarka, opposite Metro station, Sector 10 Dwarka, Dwarka, Delhi, 110075, India;28.581073;77.057515;bad
OFFICE, CAMBRIDGE FOUNDATION SCHOOL, Major Sudesh Kumar Marg, Block J, Rajouri Garden Extension, Rajouri Garden, Delhi, 110027, India;28.639749;77.114279;good
R3WP+G4V, Swatantra Nagar, Narela, Delhi, 110040, India;28.846414;77.085413;bad
P5MH+36F, Bhalswa Jahangirpuri, Jahangirpuri, Delhi, 110033, India;28.73322;77.179337;bad
320, 1st floor , Naya, Katra Kushal Rai Rd, Kinari Bazar, Katra Shah N Shah, Chandni Chowk, Delhi, 110006, India;28.654443;77.231203;bad
M4FM+PGX, Jain Muni Guru Ramkrishan Marg, Block C, Shivaji Park, Punjabi Bagh, Delhi, 110026, India;28.674654;77.133742;bad
Metro Station Shastri Park, Metro Station Shastri Park, Metro Vihar, Shastri Park, Jagjit Nagar, Delhi, 110053, India;28.668312;77.250889;good
P6PR+VH Delhi, India;28.737136;77.241456;good
15, Vikas Marg, Karkardooma, Anand Vihar, Delhi, 110092, India;28.63985;77.293278;bad
448/26, Jhangirpuri, Azadpur, Delhi, 110033, India;28.705641;77.181741;bad
A-6, 2nd Floor, Nimri Commercial Centre, Phase 4, Nimri Colony, Ashok Vihar, Delhi, 110052, India;28.680594;77.177177;good
1, Gali No. 110, Block B, Sant Nagar, Burari, Delhi, 110084, India;28.744939;77.203315;good
85, Sultanpuri, Delhi, 110086, India;28.697627;77.07701;bad
2797, Peepal Mahadev, Hauz Qazi, Old Delhi, Delhi, 110006, India;28.660328;77.232081;bad
Plot No RR 9, Metro Pillar Number 300, Block A 7, Mianwali Nagar, Paschim Vihar, Delhi, 110087, India;28.68035;77.087808;bad
A-29, Ramgarh, Bhalswa Jahangirpuri, Jahangirpuri, Delhi, 110033, India;28.725987;77.162683;bad
Edmc Hq East Municipal Corporation, Edmc Hq East Municipal Corporation, 419, Patparganj Industrial Area, Patparganj, Delhi, 110092, India;28.638731;77.308132;bad
M7GW+8W5, Shahdara Flyover, East Ram Nagar, Ram Nagar, Shahdara, Delhi, 110032, India;28.675805;77.297524;bad
P477+HFQ, Sector 6 Rd, Sector 6, Rohini, Delhi, 110085, India;28.71402;77.113725;bad
Site 1, opp. MAYANK C.G.H.S., Sector 6 Dwarka, Dwarka, Delhi, 110075, India;28.594363;77.064218;good
M72X+F6J central park AGCR Enclave, Central Park, A G C R Enclave, Anand Vihar, Delhi, 110092, India;28.651117;77.29777;bad
C - 4, First Floor, Pillar No. 177, Ring Rd, next to BMW Showroom, Block C, Rajouri Garden, Delhi, 110027, India;28.644759;77.127027;bad
H3P4+JVW, Sector 10 Dwarka, Dwarka, Delhi, 110075, India;28.586232;77.057073;bad
E -1582, Block A, Jahangirpuri, Delhi, 110033, India;28.734409;77.173086;bad
A4/475, Sultanpuri, Delhi, 110086, India;28.69454;77.077122;bad
Welcome Colony, North Kanti Nagar, Block A, Seelampur, Shahdara, Delhi, 110032, India;28.672835;77.278595;bad
P65G+C37, Block C, Delhi Administration Flats, Timarpur, Delhi, 110054, India;28.708593;77.22511;bad
C-110, Aggra Nagar, Gali No 1, Nangloi, Gulshan Park, Mubarkpur, Delhi, 110041, India;28.686508;77.057299;bad
H3H5+FRG, Dwarka Sector 9, Dwarka, Delhi, 110075, India;28.578718;77.059577;bad
23, Kiran Vihar, Karkardooma, Anand Vihar, Delhi, 110092, India;28.653952;77.301722;bad
BANK, JANKI DEVI MEMORIAL COLLEGE, J.D.M.C Rd, Old Rajinder Nagar, Rajinder Nagar, Delhi, 110001, India;28.641262;77.191537;bad
Rohini West station, Rohini, Delhi, 110085, India;28.71471;77.116394;bad
664, shop no 107, first floor, Gali Ghanteshwar, Bagh Deewar, Katra Neel, Chandni Chowk, Delhi, 110006, India;28.659214;77.225495;good
Peera Garhi, Delhi, India;28.679848;77.092758;bad
J7PR+JV3, Block C, C Block, Preet Vihar, Delhi, 110092, India;28.636646;77.292;good
K-1/5, Dwarka Mad, Block P, Mohan Garden, Razapur Khurd, Delhi, 110059, India;28.627761;77.03899;bad
01, Kashmere Gate, Delhi, 110006, India;28.666602;77.229617;bad
Rohini Institutional Area, Sector 5, Rohini, Rohini Institutional Area, Sector 5, Rohini, Delhi, 110085, India;28.720178;77.107848;bad
B-12, Shubham Enclave, Reserve Bank Enclave, Paschim Vihar, Delhi, 110063, India;28.669161;77.094517;bad
H3P2+4G3, Sector 11 Dwarka, Dwarka, Delhi, 110075, India;28.585018;77.051615;good
M6M5+6FC, Prof ND Kapoor Marg, Kirori Mal College, Delhi School Of Economics, Delhi, 110007, India;28.683256;77.208638;good
01, Kashmere Gate, Delhi, 110006, India;28.666602;77.229617;bad
H2VQ+HFH, Sector 12 Dwarka, Dwarka, Delhi, 110075, India;28.593691;77.038577;bad
P63G+RV3, Block J, Majnu-ka-tilla, New Aruna Nagar, Delhi, 110054, India;28.704506;77.227734;bad
Rohini West station, Rohini, Delhi, 110085, India;28.71471;77.116394;good
Saharanpur - Delhi Rd, West Jyoti Nagar, Pocket B, Chitrakoot, Gokalpur, Delhi, 110032, India;28.69834;77.291737;bad
R4FM+G5H, Khampur, Khampur Village, Delhi, 110036, India;28.823575;77.132362;good
Metro Station-Jhilmil, Jhilmil Industrial Area, Jhilmil Colony, Delhi, 110095, India;28.675682;77.311925;bad
M6X8+WFM, Banarsi Das Estate, Timarpur, Delhi, 110054, India;28.699642;77.215006;bad
01, Kashmere Gate, Delhi, 110006, India;28.666602;77.229617;bad
M3VF+JRF, Block B 4, Harijan Colony, Sultanpuri, Delhi, 110086, India;28.694089;77.074606;good
State Co-operative Bank Building, M3J9+WVC, Rohtak Rd, Block X, JJ Colony No 3, Nangloi, Delhi, 110041, India;28.682325;77.069705;bad
M4XJ+M89, Pitampura Village, Harsh Vihar, Pitam Pura, Delhi, 110034, India;28.699108;77.130833;good
2, Nangloi Sultanpuri Rd, Block B 4, Harijan Colony, Mangolpuri, Delhi, 110083, India;28.694352;77.073298;bad
M6CW+44 Delhi, India;28.670315;77.245278;bad
1811 Cheera Khana Maliwara, Nai Sarak, Vaidwara, Maliwara, Roshanpura, Chandni Chowk, Delhi, 110006, India;28.654416;77.229237;bad
198, Qutab Rd, Ram Nagar Market, Teliwara, Sadar Bazaar, Delhi, 110006, India;28.648585;77.217864;bad
Q6F3+53 Delhi, India;28.772939;77.202702;bad
35-152, Asha Ram Tyagi Marg, Block C, Kabir Nagar, Shahdara, Delhi, 110053, India;28.692532;77.279913;good
M6P5+5RX, Delhi School Of Economics, University Enclave, Delhi, 110007, India;28.685551;77.209794;bad
H3P2+C56, Sector 11 Dwarka, Dwarka, Delhi, 110075, India;28.58581;77.05043;bad
P6C9+7JJ, Gandhi Vihar, Wazirabad, Delhi, 110009, India;28.721067;77.219124;bad
BSR online exam centre, khasra no. 32/33 1st and 2nd, Ranaji Enclave II, Anand Vihar, Najafgarh, Delhi, 110043, India;28.617205;77.009921;bad
H377+92Q, Sector 21, Dwarka, Delhi, 110077, India;28.56369;77.062636;bad
M8G3+9XW, Damodar Park Industrial Area, Block R, Dilshad Garden, Delhi, 110095, India;28.675781;77.305;good
A1 block, Sultanpuri, Delhi, 110086, India;28.695059;77.074394;good
ISBT Ring Road, Ladakh Budh Vihar Colony, Civil Lines, Delhi, 110054, India;28.672059;77.231177;good
2, Vikas Marg, Block C, Shankar Vihar, Preet Vihar, Delhi, 110092, India;28.637878;77.289579;bad
P486+H9 Delhi, India;28.716412;77.110901;bad
9, Jagat Puri, Krishna Nagar, Delhi, 110051, India;28.640291;77.293567;good
22, Shastri Nagar, Geeta Colony, Delhi, 110031, India;28.644983;77.268813;bad
B3/446, State Bank Road, Sultanpuri, Sultanpuri, Delhi, 110086, India;28.698098;77.077176;bad
A-2 DLF Ankur Vihar Ankur Vihar, DLF Ankur Vihar, Haiderpur, Shalimar Bagh, Delhi, 201102, India;28.717453;77.150867;good
92, Block F, Preet Vihar, Delhi, 110092, India;28.641227;77.295102;bad
New Delhi, Delhi, 110002, India;28.642368;77.219448;bad
Dilshad Garden GT Road, Jhilmil Colony, Delhi, 110095, India;28.675679;77.311753;bad
Arun Jaitley Stadium Delhi Gate, IG Indoor Stadium, ITO, Vikram Nagar, Delhi, 110002, India;28.635217;77.248529;bad
H2MW+6X DDA park Dwarka sec 19, Pocket 2, Dwarka, Delhi, 110075, India;28.583777;77.047903;good
C-110, Aggra Nagar, Gali No 1, Nangloi, Gulshan Park, Mubarkpur, Delhi, 110041, India;28.686508;77.057299;bad
A1/486, Grand Trunk Rd, Uberoi Compound, Ghisa, Dilshad Garden, Delhi, 110095, India;28.676333;77.320195;bad
Sector 10, Dwarka, opposite Metro station, Sector 10 Dwarka, Dwarka, Delhi, 110075, India;28.581073;77.057515;good
1/3224, Main Mandoli Rd, near Aggarwal sweets, Ram Nagar Extension, Ram Nagar, Shahdara, Delhi, 110032, India;28.682764;77.296176;bad
Terminal 3, Delhi, 110037, India;28.553211;77.088764;good
C-110, Aggra Nagar, Gali No 1, Nangloi, Gulshan Park, Mubarkpur, Delhi, 110041, India;28.686508;77.057299;bad
1062, Mukharji Nagar Rd, Mukherjee Nagar, Delhi, 110009, India;28.714846;77.216245;bad
1342, Ground Floor , katra leshwan, Chandni Chowk Rd, Sis Ganj Guru Dwara, Kucha Mahajani, Chandni Chowk, Delhi, 110006, India;28.656457;77.230068;bad
Mahindra Park, Mutiny Memorial, Shalimar Bagh, Delhi, 110088, India;28.721447;77.166178;bad
P4C9+PRW, Swarn Jayanti Park, Sector 10, Rohini, Delhi, 110085, India;28.722288;77.119614;good
55/29, Outer Phirni Road, Holambi Main Rd, Naya Bans, Iradat Nagar, Delhi, 110082, India;28.782851;77.093381;good
424,forth floor, dmall Twin district centre, Swarn Jayanti Park, Sector 10, Rohini, Delhi, 110085, India;28.716052;77.113751;bad
M7CC+P93, Grand Trunk Rd, Phase 1, Block G, Shahdara, Delhi, 110031, India;28.671603;77.270505;bad
Main Rd, Indra Vihar, Mukherjee Nagar, New Delhi, Indra Vihar, Mukherjee Nagar, Delhi, 110009, India;28.707169;77.212463;bad
M6VW+5J Delhi, India;28.692997;77.246504;bad
P477+HFQ, Sector 6 Rd, Sector 6, Rohini, Delhi, 110085, India;28.71402;77.113725;good
9, Jagat Puri, Krishna Nagar, Delhi, 110051, India;28.640289;77.293904;good
JandK Pocket Dilshad Garden, Pocket A, Pocket J & K, Dilshad Garden, Delhi, 110095, India;28.679678;77.325097;bad
BANK, JANKI DEVI MEMORIAL COLLEGE, J.D.M.C Rd, Old Rajinder Nagar, Rajinder Nagar, Delhi, 110001, India;28.641262;77.191537;bad
P5RF+47 Delhi, India;28.740283;77.173217;bad
350, Block A 4, AB Extension, Sultanpuri, Delhi, 110086, India;28.695406;77.078683;bad
2151/17-B-1 metro piller no 252, New Patel Nagar, Shadipur, Delhi, 110008, India;28.653531;77.154896;bad
P486+H9 Delhi, India;28.716412;77.110901;good
Co-Offiz, Second Floor 5 Park End, Colony, Vikas Marg, G Block, Preet Vihar, Delhi, 110092, India;28.642925;77.296978;good
Rohini District Park, Bhagwan Mahavir Marg, behind Rohini East Metro Station, Sector 14, Rohini, Delhi, 110085, India;28.709255;77.127709;bad
G T Karnal Road Singhu Border, National Highway 1, Singhu, Delhi, 131023, India;28.855877;77.12571;good
P486+RXR, Bhagwan Mahavir Marg, Rohini Institutional Area, Sector 5, Rohini, Delhi, 110085, India;28.717082;77.112266;bad
M789+R58, Seelampur Rd, Ajit Nagar, Seelampur, Shahdara, Delhi, 110031, India;28.66701;77.267982;bad
opp Gate No 4 Bonta Ridge Area, Bhiku Ram Jain Marg - Rajpur Rd, Kamla Nehru Ridge, Civil Lines, Delhi, 110007, India;28.67927;77.215783;bad
Rohini Institutional Area, Sector 5, Rohini, Rohini Institutional Area, Sector 5, Rohini, Delhi, 110085, India;28.719959;77.108136;good
Susram niwas, plot no. 128,shiv vihar Vikas Nagar, uttam nagar Behind kamlesh public school and, near by Gupta Timber, Green Enclave, Hastsal, Delhi, 110059, India;28.646947;77.051014;bad
462, Rohtak Rd, opp. Metro Pillar Number 461, Amar Colony, Swaran Park, Nangloi, Delhi, 110041, India;28.682104;77.046247;bad
M3VR+XG3, Block D, Mangolpuri, Delhi, 110083, India;28.694892;77.091309;bad
M64G+WX9, Town Hall, Chandni Chowk, Delhi, 110006, India;28.657174;77.227545;good
M7GX+634, Shahdara, Delhi, 110032, India;28.675799;77.297715;bad
M7G7+X69, Panduk Shila Marg, Block T, Goutampuri, Shahdara, Delhi, 110053, India;28.677331;77.262909;bad
M7CC+P93, Grand Trunk Rd, Phase 1, Block G, Shahdara, Delhi, 110031, India;28.671663;77.270945;bad
01, Kashmere Gate, Delhi, 110006, India;28.666602;77.229617;bad
DDA Sports Complex, Sector 11, Dwarka, Sector 11 Dwarka, Dwarka, Delhi, 110075, India;28.589909;77.055165;bad
Adarsh Nagar, Delhi, India;28.716598;77.170447;good
6, Pocket, 4, Pocket 1, Sector 10 Dwarka, Dwarka, Delhi, 110075, India;28.590917;77.058061;good
M64R+79X, Lal Qila, Chandni Chowk, Delhi, 110006, India;28.655706;77.240993;good
A3/181, Sultanpuri, Delhi, 110086, India;28.696231;77.074832;bad
437/25, Near Prachin Shilu Mandir, National Market, Peera Garhi, Peeragarhi Village, Paschim Vihar, Delhi, 110087, India;28.67616;77.088567;bad
A-2 DLF Ankur Vihar Ankur Vihar, DLF Ankur Vihar, Haiderpur, Shalimar Bagh, Delhi, 201102, India;28.717453;77.150867;good
23/2, Jhilmil Industrial Area, Jhilmil Colony, Delhi, 110095, India;28.67576;77.314271;bad
C-110, Aggra Nagar, Gali No 1, Nangloi, Gulshan Park, Mubarkpur, Delhi, 110041, India;28.686508;77.057299;bad
01, Kashmere Gate, Delhi, 110006, India;28.666602;77.229617;bad
K Block Baba Ramdev Mandir, Block B 3, Raghubir Nagar, Tagore Garden Extension, Delhi, 110027, India;28.653174;77.109211;bad
C-110, Aggra Nagar, Gali No 1, Nangloi, Gulshan Park, Mubarkpur, Delhi, 110041, India;28.686508;77.057299;bad
1381, Nicholson Rd, Kashmere Gate, Delhi, 110006, India;28.66604;77.228623;bad
Babu Jag Jiwan Ram Hospital, Block A, Jahangirpuri, Delhi, 110033, India;28.735745;77.172914;bad
M39W+GWQ, Rd Number 30, Shubham Enclave, Reserve Bank Enclave, Paschim Vihar, Delhi, 110063, India;28.668933;77.097474;good
105, Bara Bazar Rd, Ganda Nala Bazar, South Indian Madrasi Colony, Mori Gate, Delhi, 110006, India;28.665556;77.22591;bad
2367, Ballimaran Rd, Baradari, Chandni Chowk, Delhi, 110006, India;28.653943;77.226127;bad
Rajouri Garden, Block A, Rajouri Garden, Delhi, 110027, India;28.64883;77.122527;bad
M4PX+3F Delhi, India;28.685174;77.148683;bad
Q48F+8GX, Khera Kalan Rd, Khera Kalan, Delhi, 110082, India;28.765757;77.12391;bad
Jahangir Puri Metro Station, Bhalswa Jahangirpuri, Jahangirpuri, Delhi, 110033, India;28.726888;77.162001;bad
H-Block Ashok Vihar, Police Colony, Pocket J, Phase 1, Ashok Vihar, Delhi, 110052, India;28.688596;77.168293;bad
C-42, near Metro Pillar Number 86, C Block, Preet Vihar, Delhi, 110092, India;28.639656;77.292977;bad
1, Gali No. 110, Block B, Sant Nagar, Burari, Delhi, 110084, India;28.744939;77.203315;good
198/C, Pushpanjali, Karkardooma, Anand Vihar, Delhi, 110092, India;28.654176;77.308822;bad
P4F3+P28, Bagga Link Rd, Paul Colony, Rithala, Rohini, Delhi, 110085, India;28.72444;77.102378;bad
59A, Vipin Garden Extension, Vipin Garden, Nawada, Delhi, 110059, India;28.623246;77.023044;bad
Indira Gandhi Stadium, IG Indoor Stadium, ITO, Vikram Nagar, Delhi, 110002, India;28.633929;77.246719;bad
01, Kardam Puri Extension, Kardam Puri, Shahdara, Delhi, 110094, India;28.697526;77.287343;bad
No. D-6 320,, Sir Chotu Ram Marg, Sector 6, Rohini, Delhi, 110085, India;28.715757;77.112126;bad
Rohini West Metro Station, Swarn Jayanti Park, Sector 10, Rohini, Delhi, 110085, India;28.715544;77.114484;bad
Shivanika Gas Agency, Rd Number 71, Vivek Vihar, Delhi, 110095, India;28.665771;77.312773;good
61A DDA Flats Shastri Park, Metro Vihar, Shastri Park, Jagjit Nagar, Delhi, 110053, India;28.668474;77.25042;bad
C-110, Aggra Nagar, Gali No 1, Nangloi, Gulshan Park, Mubarkpur, Delhi, 110041, India;28.686508;77.057299;bad
C-110, Aggra Nagar, Gali No 1, Nangloi, Gulshan Park, Mubarkpur, Delhi, 110041, India;28.686508;77.057299;bad
Mother Mary's School, Chilla Sarda Bangar, Chilla Sarda Bangar Village, Trilokpuri, Delhi, 110091, India;28.598917;77.299607;bad
251/3, Post Office Block, Block D, Krishna Nagar, Delhi, 110051, India;28.660285;77.281301;bad
01, Kashmere Gate, Delhi, 110006, India;28.666602;77.229617;bad
H3V4+WX2 Park DDA Sec 5, Sector 5, Dwarka, Delhi, 110075, India;28.595455;77.056771;good
Plot 6, Sector 19B, Dwarka, Delhi, 110075, India;28.578172;77.0428;good
616, Loni Rd, Ram Nagar, Shahdara, Delhi, 110032, India;28.678333;77.293439;bad
Chaudhary Gulab Singh Marg, 48a, Ashok Vihar Phase 1 Rd, Block KC, Wazirpur Village, Ashok Vihar, Delhi, 110052, India;28.688348;77.174578;bad
Arun Jaitley Stadium Delhi Gate, IG Indoor Stadium, ITO, Vikram Nagar, Delhi, 110002, India;28.635217;77.248534;bad
Main Rd, Indra Vihar, Mukherjee Nagar, New Delhi, Indra Vihar, Mukherjee Nagar, Delhi, 110009, India;28.707361;77.212567;good
Near Kirori Mall College, M6M5+C59, University Enclave, Delhi, 110007, India;28.683509;77.208312;good
P487+Q2 Delhi, India;28.716906;77.11252;bad
OFFICE, CAMBRIDGE FOUNDATION SCHOOL, Major Sudesh Kumar Marg, Block J, Rajouri Garden Extension, Rajouri Garden, Delhi, 110027, India;28.639749;77.114279;good
Site 1, opp. MAYANK C.G.H.S., Sector 6 Dwarka, Dwarka, Delhi, 110075, India;28.594363;77.064218;good
Jahangir Puri Outer Ring Road, Bhalswa Jahangirpuri, Jahangirpuri, Delhi, 110033, India;28.73434;77.176275;bad
H2QQ+P7 Delhi, India;28.589373;77.038177;bad
J325+FHC, Sector 5, Dwarka, Delhi, 110075, India;28.601413;77.058824;good
P4G7+9RG, Swarn Jayanti Park, Sector 12, Rohini, Delhi, 110085, India;28.725531;77.114259;good
M63W+4X Delhi, India;28.652843;77.247394;good
C-110, Aggra Nagar, Gali No 1, Nangloi, Gulshan Park, Mubarkpur, Delhi, 110041, India;28.686508;77.057299;bad
Shop No: 35 Ground, Cross River Mall, Vishwas Nagar Extension, Vishwas Nagar, Shahdara, Delhi, 110032, India;28.656726;77.30198;bad
687, Arya Mohalla Gali, Saini Mohalla, Shiv Vihar, Nangloi, Delhi, 110041, India;28.676779;77.071121;bad
Administrative Block, DRM Office block, J6Q9+FXF, State Entry Rd, Railway Colony, Delhi, 110002, India;28.638622;77.220377;bad
M5Q3+V54, Mahatma Gandhi Rd, Dr Lohia Industrial Area, Netaji Subhash Place, Tri Nagar, Delhi, 110034, India;28.689462;77.152695;bad
Uttam Nagar Terminal, JJ Colony, Uttam Nagar, Delhi, 110059, India;28.625613;77.065459;bad
10, Desh Bandhu Gupta Rd, near Bank Of Baroda, Arya Nagar, Paharganj, Delhi, 110055, India;28.644578;77.215282;bad
F-23/3, Gali No. 1, Block A, Vinod Nagar East, Delhi, 110091, India;28.623802;77.307055;good
17, Block F, Preet Vihar, Delhi, 110092, India;28.641451;77.295386;good
110088, Shalamar, Shalimar Extension, Shalimar Bagh, Delhi, 110088, India;28.723359;77.154159;good
Karol Bagh, Delhi, India;28.643548;77.197007;good
Shop No 7, Rithala Metro Station, Sector 11, Rohini, Delhi, 110085, India;28.720509;77.10747;good
H3R3+5XC, Sector 11 Dwarka, Dwarka, Delhi, 110075, India;28.590428;77.054862;good
H3P2+4G3, Sector 11 Dwarka, Dwarka, Delhi, 110075, India;28.585018;77.051615;good
nd floor, Building no. H2/A2 - 1642, near Hotel Dilli Inn, Mool Chand Nagar, Adarsh Nagar, Delhi, 110033, India;28.718705;77.168607;bad
42, DLE Industrial Area, Kirti Nagar, Delhi, 110015, India;28.655237;77.143689;bad
Punjabi Bagh Club, Delhi, 110026, India;28.663145;77.13071;bad
DDA Dwarka Office, Sector 5, Dwarka, Delhi, 110075, India;28.592253;77.057534;bad
P477+HFQ, Sector 6 Rd, Sector 6, Rohini, Delhi, 110085, India;28.71402;77.113725;good
Majlis Park, Block EE, Jahangirpuri, Delhi, 110033, India;28.723806;77.182122;bad
A-10, Near Dilbag Clinic, Metro Pillar No. 654, Najafgarh Rd, Block D2, Milap Nagar, Uttam Nagar, Delhi, 110059, India;28.624207;77.063886;bad
DDA Park (NHP) Jai Apartment, 40 Jai Apartment, 102, I.P.Extension, Patparganj, Delhi, 110092, India;28.629561;77.31129;bad
Haiderpur Badli Mor Metro Station, C and D Block, Shalimar Place Site, Shalimar Bagh, Delhi, 110088, India;28.72938;77.148476;bad
20b, Nangloi Saiyed Rd, B 2 Block, Paschim Vihar, Delhi, 110063, India;28.669682;77.10654;good
M4V3+JHV, Sector 2, Mangolpuri, Delhi, 110083, India;28.693808;77.103608;good
C-110, Aggra Nagar, Gali No 1, Nangloi, Gulshan Park, Mubarkpur, Delhi, 110041, India;28.686508;77.057299;bad
M3WC+3W6, Block E 3, Balbir Vihar, Sultanpuri, Delhi, 110086, India;28.695117;77.072365;bad
Rohini Depot 1 Sec 6 (Ambedkar Hospital), Swarn Jayanti Park, Sector 10, Rohini, Delhi, 110085, India;28.715728;77.114218;good
688, Block 16, Jor Bagh, Delhi, 110035, India;28.58622;77.223567;good
140, near Metro Pillar Number 234, Avtar Enclave, Paschim Vihar, Delhi, 110063, India;28.678115;77.105196;good
ISBT Ring Road, Civil Lines, Delhi, 110054, India;28.671234;77.231432;bad
4/27 SUBHASH NAGAR, NEW DELHI, Ankur Enclave, Paschim Vihar, Delhi, 110027, India;28.664947;77.096663;bad
Gate, Street Number 2, Block D, JJ Colony, Uttam Nagar, Delhi, 110059, India;28.624512;77.064633;bad
H2VQ+Q2 Delhi, India;28.594402;77.037508;bad
78HU, Pitampura Marg, Block HU, Uttari Pitampura, Pitam Pura, Delhi, 110088, India;28.713157;77.146602;good
H2QQ+P7 Delhi, India;28.589373;77.038177;bad
Peera Garhi Chowk Flyover, Block E, New Multan Nagar, Shakur Basti, Delhi, 110063, India;28.682562;77.09498;bad
P252+MH Delhi, India;28.709129;77.001453;bad
629, Hamilton Rd, Chhota Bazar, South Indian Madrasi Colony, Kashmere Gate, Delhi, 110006, India;28.662509;77.226967;bad
A- block, Maharishi Balaram Marg, JJ Colony, Shakurpur Colony, Shakurpur, Delhi, 110034, India;28.686508;77.147072;bad
P477+HFQ, Sector 6 Rd, Sector 6, Rohini, Delhi, 110085, India;28.71402;77.113725;good
Shamshan Ghat Pusta, Multani Mohalla, Geeta Colony, Delhi, 110031, India;28.656416;77.263125;bad
HANS BHAWAN WING-2, IP ESTATE, IP Estate, Delhi, 110002, India;28.626939;77.242672;bad
WZ-1, Metro Station, Najafgarh Rd, Titarpur, Tagore Garden, Tagore Garden Extension, Delhi, 110027, India;28.644319;77.113612;bad
Ito, IP Estate, Delhi, 110002, India;28.628072;77.24372;good
Shop No. 4 & 5, Matia Mahal Road, Opposte, Matia Mahal, Gate No. 1, Jama Masjid, Old Delhi, Delhi, 110006, India;28.6498;77.233492;bad
A-2 DLF Ankur Vihar Ankur Vihar, DLF Ankur Vihar, Haiderpur, Shalimar Bagh, Delhi, 201102, India;28.717453;77.150867;good
3867, Katra Kushal Rai Rd, Choori Walan, Katra Shah N Shah, Chandni Chowk, Delhi, 110006, India;28.654742;77.23123;bad
22, Hathora Ram Park Rd, Keshav Puram, Kishan Ganj, Delhi, 110007, India;28.686905;77.157856;bad
E-2, Rajan Babu Rd, Block E, Adarsh Nagar, Delhi, 110033, India;28.721262;77.176591;bad
9 TO 16, 205 Delhi Rd, Sector 19, Pocket 3, Dwarka, Delhi, 110075, India;28.586883;77.042967;good
1, Kingsway Camp, Model Town, Delhi, 110009, India;28.685175;77.210774;bad
21, 8, Jhilmil Industrial Area, Jhilmil Colony, Delhi, 110095, India;28.675773;77.314619;bad
A- block, Maharishi Balaram Marg, JJ Colony, Shakurpur Colony, Shakurpur, Delhi, 110034, India;28.686508;77.147072;bad
Nawada metro station, J2CV+4X3, Block D, Mansa Ram Park, Uttam Nagar, Delhi, 110059, India;28.620197;77.044897;bad
C-110, Aggra Nagar, Gali No 1, Nangloi, Gulshan Park, Mubarkpur, Delhi, 110041, India;28.686508;77.057299;bad
J336+R4W, Bharat Vihar Rd, Madhu Vihar, Delhi, 110059, India;28.604611;77.060311;bad
Q5RX+PG, Tehari Dawlatpur, Delhi, 110036, India;28.792874;77.199356;good
Shop no 5526, 2nd Floor, Nai Sarak, opp. town hall, Katra Rathi, Chandni Chowk, Delhi, 110006, India;28.656476;77.227348;bad
Gandhi Darshan, Delhi, 110002, India;28.637171;77.247146;good
M5P5+5PM, Block A 2, Keshav Puram, Tri Nagar, Delhi, 110035, India;28.684835;77.158981;bad
Welcome station, Shahdara, Delhi, 110032, India;28.672498;77.276751;bad
Shivanika Gas Agency, Rd Number 71, Vivek Vihar, Delhi, 110095, India;28.665771;77.312773;bad
A-29, Ramgarh, Bhalswa Jahangirpuri, Jahangirpuri, Delhi, 110033, India;28.725987;77.162683;bad
Telephone Exchange Shakurpur, Shakurpur Colony, Shakurpur, Delhi, 110034, India;28.686658;77.150862;good
1, Old Palam Rd, Bharat Vihar, Dwarka, Delhi, 110078, India;28.608411;77.033065;bad
J7MP+8G Delhi, India;28.633315;77.286267;bad
Seelampur Chowk, M7C9+JX2, New Seelampur, Shahdara, Delhi, 110053, India;28.671505;77.269784;bad
M66H+4CM, Shyama Prasad Mukherjee Marg, Old Delhi, Delhi, 110006, India;28.660081;77.22866;bad
M3J7+RFQ, Nangloi Flyover, Block 4 ABC, Nangloi Extension, Nangloi, Delhi, 110041, India;28.682007;77.063772;bad
Rajeev Nagar, Usmanpur, Shahdara, Delhi, 110094, India;28.70651;77.249593;bad
Bhalaswa Xing, Bhalswa Jahangir Village, Bhalswa, Delhi, 110033, India;28.737719;77.166596;bad
P486+H9 Delhi, India;28.716412;77.110901;bad
M64G+WX9, Town Hall, Chandni Chowk, Delhi, 110006, India;28.657174;77.227545;bad
ISBT Ring Road, Civil Lines, Delhi, 110054, India;28.671234;77.231432;bad
J-2/11 first floor, Block J, Rajouri Garden, Delhi, 110027, India;28.647475;77.119103;good
P6F4+PV7, Nirankari Park, Gopalpur Village, Delhi, 110009, India;28.725327;77.207986;good
M6J7+8HV, Kamla Nehru Ridge, Civil Lines, Delhi, 110007, India;28.680993;77.214979;good
Shivaji Park, Kamla Market, Ajmeri Gate, Delhi, 110002, India;28.63837;77.22377;good
G/1586, Gandhi Nagar Main Rd, Block 9, Geeta Colony, Delhi, 110031, India;28.659349;77.267657;good
Seelampur Chowk, M7C9+JX2, New Seelampur, Shahdara, Delhi, 110053, India;28.6715;77.269749;bad
P486+H9 Delhi, India;28.716412;77.110901;good
C 8/290, Lawrence Rd, Block C8, Keshav Puram, Tri Nagar, Delhi, 110035, India;28.69053;77.158509;good
C-110, Aggra Nagar, Gali No 1, Nangloi, Gulshan Park, Mubarkpur, Delhi, 110041, India;28.686508;77.057299;bad
H3P2+4G3, Sector 11 Dwarka, Dwarka, Delhi, 110075, India;28.585001;77.051641;bad
2566, Dharampura Rd, Nawabganj, Tis Hazari, Delhi, 110006, India;28.653688;77.231231;good
20/56, West Punjabi Bagh, Punjabi Bagh, Delhi, 110026, India;28.66705;77.125502;good
Barwala Gaon, Q349+Q6M, Sector 35, Rohini, Delhi, 110039, India;28.756526;77.068645;bad
C-110, Aggra Nagar, Gali No 1, Nangloi, Gulshan Park, Mubarkpur, Delhi, 110041, India;28.686508;77.057299;bad
Ravinder Rangshala, Old Rajinder Nagar, Delhi, 110001, India;28.641214;77.195289;good
P4G7+9RG, Swarn Jayanti Park, Sector 12, Rohini, Delhi, 110085, India;28.725531;77.114259;good
C-110, Aggra Nagar, Gali No 1, Nangloi, Gulshan Park, Mubarkpur, Delhi, 110041, India;28.686508;77.057299;good
A2/503, Nangloi Sultanpuri Rd, Sultanpuri, Delhi, 110086, India;28.692978;77.076682;bad
J7MQ+5VR Acharya Nagraj Marg, Block A, Preet Vihar, New Delhi, Block A, Preet Vihar, Delhi, 110092, India;28.63298;77.289526;good
ISBT Ring Road, Civil Lines, Delhi, 110054, India;28.671234;77.231432;bad
88, The Mall Rd, near Metro Station, GTB Nagar, Delhi, 110009, India;28.69797;77.20666;bad
C/0 - Bhagwati Motors (Regd.)1017 Main, Arya Samaj Rd, Ghaffar Market, Block 23, Beadonpura, Karol Bagh, Delhi, 110005, India;28.649651;77.190212;bad
B3/175, Mangal Bazar Rd, Sultanpuri, Delhi, 110086, India;28.69886;77.076106;bad
M67X+CCX, Old Iron Bridge, Gandhi Nagar, Shahdara, Delhi, 110031, India;28.66362;77.248094;good
Mayapuri, Block WH, Mayapuri Industrial Area Phase I, Mayapuri, Delhi, 110064, India;28.637343;77.129723;bad
C-110, Aggra Nagar, Gali No 1, Nangloi, Gulshan Park, Mubarkpur, Delhi, 110041, India;28.686508;77.057299;good
834, Chandra Shekhar Azad Colony, Mukherjee Nagar, Delhi, 110009, India;28.666457;77.199731;bad
B3/403, Sultanpuri, Delhi, 110086, India;28.698305;77.076881;bad
JJ Colony Wazir Pur, Shanti Nagar, Tri Nagar, Delhi, 110035, India;28.678725;77.166502;bad
Shakurpur, JJ Colony, Shakurpur Colony, Shakurpur, Delhi, 110034, India;28.685917;77.149777;bad
Sarai Basti, Daya Basti, Delhi, 110035, India;28.668745;77.176041;bad
C-110, Aggra Nagar, Gali No 1, Nangloi, Gulshan Park, Mubarkpur, Delhi, 110041, India;28.686508;77.057299;bad
P477+HFQ, Sector 6 Rd, Sector 6, Rohini, Delhi, 110085, India;28.71402;77.113725;good
R35V+5Q6, Holambi Main Rd, Holambi Kalan, Delhi, 110082, India;28.807749;77.094216;good
P477+HFQ, Sector 6 Rd, Sector 6, Rohini, Delhi, 110085, India;28.71402;77.113725;good
G-197, NH-24, near Indian Oil(Ms.Taneja Service Station) and CNG Station, Ghazipur Village, Ghazipur, Delhi, 110096, India;28.628039;77.319898;bad
SENIOR WING, ST. THOMAS SCHOOL-2, Block A, Goyla Vihar, Goyla Village, Delhi, 110071, India;28.580092;77.013022;bad
Shahdara Border, Chikamberpur Village, Chikamberpur, Delhi, 110095, India;28.677567;77.323025;good
C-110, Aggra Nagar, Gali No 1, Nangloi, Gulshan Park, Mubarkpur, Delhi, 110041, India;28.686508;77.057299;bad
Turkman Gate / G B Pant Hosipatal, Turkman Gate, Chandni Chowk, Delhi, 110006, India;28.641705;77.233092;bad
Ekta Apartment, J342+666, Dwarka Sector-3, Dwarka, Delhi, 110078, India;28.605294;77.050446;bad
1418 to 1427, Lothian Rd, Inter State Bus Terminal, Kashmere Gate, Delhi, 110006, India;28.66621;77.229557;bad
J7V2+44 Delhi, India;28.642848;77.250284;good
Shivaji College, Shivaji Enclave, Tagore Garden Extension, Delhi, 110027, India;28.655639;77.120854;bad
Main Chowk, Kanjhawala, Delhi, 110081, India;28.737677;77.007339;bad
Edmc Hq East Municipal Corporation, Edmc Hq East Municipal Corporation, 419, Patparganj Industrial Area, Patparganj, Delhi, 110092, India;28.638731;77.308132;bad
346, Manohar Market, Chawri Bazar, Chandni Chowk, Delhi, 110006, India;28.650522;77.231311;bad
A block, Sector 15, Pocket 2, Sector 15A, Rohini, Delhi, 110089, India;28.729831;77.129095;bad
J85H+HWX, Pocket 5, New Kondli, Kondli, Delhi, 110096, India;28.609013;77.329706;bad
Bhalaswa Crossing, Bhalswa Jahangir Village, Bhalswa, Delhi, 110033, India;28.737713;77.16454;bad
M67X+CCX, Old Iron Bridge, Gandhi Nagar, Shahdara, Delhi, 110031, India;28.663865;77.248686;bad
A-88, Gali Number 15, Madhu Vihar, I.P.Extension, Patparganj, Delhi, 110092, India;28.635961;77.303795;bad
V43M+5V Delhi, India;28.852886;77.134653;bad
Rohini Sec-9 /7, Pocket 37, Sector 9, Rohini, Delhi, 110085, India;28.713713;77.117128;bad
J6JX+FR Delhi, India;28.631162;77.249554;good
22, Main Mandoli Rd, Ram Nagar, Shahdara, Delhi, 110032, India;28.680033;77.294289;bad
P4/642, Aman Vihar No 6 Galli, Block P4, Aman Vihar, Sultanpuri, Delhi, 110086, India;28.702869;77.073013;good
G/1586, Gandhi Nagar Main Rd, Block 9, Geeta Colony, Delhi, 110031, India;28.659349;77.267657;bad
Shastri Park, Metro Vihar, Shastri Park, Jagjit Nagar, Delhi, 110053, India;28.668825;77.249371;bad
2566, Dharampura Rd, Nawabganj, Tis Hazari, Delhi, 110006, India;28.653688;77.231231;bad
Shivanika Gas Agency, Rd Number 71, Vivek Vihar, Delhi, 110095, India;28.665771;77.312773;good
Shivanika Gas Agency, Rd Number 71, Vivek Vihar, Delhi, 110095, India;28.665771;77.312773;good
East Vinod Nagar, Mayur Vihar Phase II, Sanjay Park, Delhi, 110091, India;28.620692;77.297836;good
J7PR+JV3, Block C, C Block, Preet Vihar, Delhi, 110092, India;28.636646;77.292;bad
C-110, Aggra Nagar, Gali No 1, Nangloi, Gulshan Park, Mubarkpur, Delhi, 110041, India;28.686508;77.057299;bad
01, Kashmere Gate, Delhi, 110006, India;28.666602;77.229617;bad
St Stephen Hospital, Railway Colony, Tis Hazari, Delhi, 110054, India;28.667551;77.214234;bad
619-A/2, Loni Rd, Ram Nagar, Shahdara, Delhi, 110032, India;28.678656;77.292413;bad
834, Chandra Shekhar Azad Colony, Mukherjee Nagar, Delhi, 110009, India;28.666391;77.199971;bad
P4G7+9RG, Swarn Jayanti Park, Sector 12, Rohini, Delhi, 110085, India;28.725531;77.114259;good
R4VH+7RJ, Singhola, Delhi, 110036, India;28.843016;77.13061;good
Bodycare International, 163, Chaudhary Charan Singh Marg, Patparganj, Ghazipur Village, Ghazipur, Delhi, 110092, India;28.640307;77.315228;bad
P6PR+RC Delhi, India;28.73703;77.241049;good
386, Gali No 1, Main Road Than Singh Nagar Anand Parbat New Delhi, Block 26 B, Dev Nagar, Karol Bagh, Delhi, 110005, India;28.658155;77.18305;bad
E-77, Gali no. :- 10, Brahmpuri, Delhi - 110053, Seelampur Housing Complex, New Usmanpur, Shahdara, Delhi, 110053, India;28.678953;77.261481;good
3.5 kms from, Main G.T. Karnal Road, Shaheed Captain Vikram Batra Flyover, Bhalswa Jahangir Village, Bhalswa, Delhi, 110033, India;28.737721;77.162007;bad
C-110, Aggra Nagar, Gali No 1, Nangloi, Gulshan Park, Mubarkpur, Delhi, 110041, India;28.686508;77.057299;bad
M45J+845, Block W, Basai Dara pur, Bali Nagar, Delhi, 110015, India;28.658318;77.130322;good
C-3, Suraj Park, Badli, Bawana Road, R T Sahani, Badli, near Maruti Showroom, Suraj Park, Pocket G, Sector 18, Rohini, Delhi, 110042, India;28.744431;77.138475;bad
A1/498, Block B 4, Harijan Colony, Sultanpuri, Delhi, 110086, India;28.693416;77.074849;bad
CLASSROOM, SWAMI DAYANAND SARVODAYA KANYA VIDYALAYA, Bhai Naghaiya Singh Road, Block C, Rajinder Nagar, Delhi, 110001, India;28.639795;77.185616;good
198, Qutab Rd, Ram Nagar Market, Teliwara, Sadar Bazaar, Delhi, 110006, India;28.648585;77.217864;good
Ambedkar Park, 12, Kalyan Puri Road, Khichripur, Mayur Vihar Phase I, Block 18, Kalyan Puri, Delhi, 110091, India;28.617811;77.316259;bad
P4C9+PRW, Swarn Jayanti Park, Sector 10, Rohini, Delhi, 110085, India;28.722288;77.119614;good
972, Chotta Chippiwara, Chawri Bazaar, Bazar Sirkiwalan, Hauz Qazi, Chandni Chowk, Delhi, 110006, India;28.648819;77.226058;bad
Bunglow Road, Kamla Nagar, Delhi, 110007, India;28.684617;77.203179;bad
Shop No.1 -A Delhi, 137, Main Bazar Rd, Pocket A 3, Mayur Vihar Phase III, Sector 62, Delhi, 110096, India;28.612607;77.340681;bad
Seelam Pur Metro Mall, Seelampur, Shahdara, Delhi, 110053, India;28.671317;77.268385;bad
346, Manohar Market, Chawri Bazar, Chandni Chowk, Delhi, 110006, India;28.650522;77.231311;bad
4837/122 mini market 1st floor katra shubhash, New Krishna Cloth Market, Katra Nawab, Chandni Chowk, Delhi, 110006, India;28.656478;77.22577;bad
P3X3+V6 Delhi, India;28.749653;77.053084;bad
A3-51-52, Kotla Rd, Pocket 3, Sector 11A, Rohini, Delhi, 110085, India;28.729228;77.111143;bad
Ramesh Park, Laxmi Nagar, Delhi, India;28.635476;77.26988;bad
1815, CHEERAKHANA, Vaidwara, Maliwara, Roshanpura, Chandni Chowk, Delhi, 110006, India;28.65461;77.229338;bad
ISBT Ring Road, Civil Lines, Delhi, 110054, India;28.671234;77.231432;bad
3016 Masjid Khajoor, Dharam Pura, Chandni Chowk, Delhi, 110006, India;28.653196;77.231269;bad
A3/257, near Park, Sultanpuri, Delhi, 110086, India;28.696272;77.075636;bad
1/A, New Seelampur, Sadatpur, Karawal Nagar, Delhi, 110094, India;28.671427;77.269203;bad
SECURITY ROOM, DTC BUS DEPOT, Block G-3, Sector 16, Rohini, Delhi, 110085, India;28.730283;77.122503;bad
H46, Gali No. 1, Kirti Nagar, Block H, Shastri Park, Shahdara, Delhi, 110053, India;28.675488;77.258714;good
P477+HFQ, Sector 6 Rd, Sector 6, Rohini, Delhi, 110085, India;28.71402;77.113725;bad
Shastri Park, Metro Vihar, Shastri Park, Jagjit Nagar, Delhi, 110053, India;28.668821;77.249385;bad
C-110, Aggra Nagar, Gali No 1, Nangloi, Gulshan Park, Mubarkpur, Delhi, 110041, India;28.686508;77.057299;good
M66H+4CM, Shyama Prasad Mukherjee Marg, Old Delhi, Delhi, 110006, India;28.660081;77.22866;good
No. D-6 320,, Sir Chotu Ram Marg, Sector 6, Rohini, Delhi, 110085, India;28.715757;77.112126;bad
CPRTI / Delhi Jal Board, Central Ridge Reserve Forest, Delhi, 110001, India;28.636844;77.192273;bad
83, The Mall Rd, Kingsway Camp, GTB Nagar, Delhi, 110009, India;28.700118;77.200888;good
C-110, Aggra Nagar, Gali No 1, Nangloi, Gulshan Park, Mubarkpur, Delhi, 110041, India;28.686508;77.057299;bad
A-3/67, Sultanpuri, Delhi, 110086, India;28.695783;77.075121;bad
E-138/A, opposite Metro Pillar Number 176, Block A, Moti Bagh West, Shastri Nagar, Delhi, 110052, India;28.670846;77.177542;good
C-110, Aggra Nagar, Gali No 1, Nangloi, Gulshan Park, Mubarkpur, Delhi, 110041, India;28.686508;77.057299;bad
SH 57, Main Durga Puri, Durga Puri, Shahdara, Delhi, Oldanpur, Block B, Balbir Nagar, Shahdara, Delhi, 110032, India;28.687909;77.29199;bad
9, Kiran Vihar, Karkardooma, Anand Vihar, Delhi, 110092, India;28.654691;77.300274;bad
H42, Shastri Park Rd, Kirti Nagar, Block H, Shastri Park, Shahdara, Delhi, 110053, India;28.675394;77.259258;bad
J8P2+66F EDMC Park, Gurudwara Rd, I.P.Extension, Patparganj, Delhi, 110092, India;28.63561;77.3003;bad
Pal Colony, Rohini, Delhi, 110085, India;28.72348;77.103792;bad
New Delhi Railway Station Gate 1, Railway Colony, Paharganj, Delhi, 110002, India;28.640951;77.21864;bad
T-2537, Hardhyan Singh Marg, Pocket 29, Nai Walan, Karol Bagh, Delhi, 110005, India;28.646632;77.197571;bad
M24R+WVW, Nathan Vihar, Ranhola, Delhi, 110041, India;28.657269;77.042313;bad
2951, Outer Ring Rd, Bhalswa Jahangirpuri, Jahangirpuri, Delhi, 110033, India;28.734133;77.17684;bad
07, Sector 12 Dwarka, Dwarka, Delhi, 110075, India;28.590224;77.043768;good
wz238, Madipur, wz238, Delhi, 110026, India;28.671355;77.123425;bad
M8RF+88H, New Light Colony, Leprosy Home Complex, Dilshad Garden, Delhi, 110093, India;28.690965;77.323046;bad
B219, Block B, Surya Niketan, Anand Vihar, Delhi, 110092, India;28.657209;77.308143;good
A 4 , 1st floor flat No 2 Shiv mandir mohalla Badli Near shiv chouk, Badli, Rohini, Delhi, 110042, India;28.730907;77.14182;bad
J73F+X47, Delhi, 110091, India;28.605556;77.273262;bad
M7FW+J6R, Shahdara, Delhi, 110032, India;28.673849;77.295851;bad
A-320, Block A, Railway Colony, Daya Basti, Delhi, 110035, India;28.668752;77.175781;bad
K-3, Som Bazar Rd, Block A, Raja Puri, Matiala, Delhi, 110059, India;28.604758;77.056784;good
P4/30, Street Number 2, Block P4, Aman Vihar, Sultanpuri, Delhi, 110086, India;28.701937;77.073968;bad
P622+2PC, Tagore Park Extension, GTB Nagar, Delhi, 110009, India;28.699804;77.201698;good
Richmond Global School, Block B, Mianwali Nagar, Paschim Vihar, Delhi, 110087, India;28.678974;77.085292;bad
01, Kashmere Gate, Delhi, 110006, India;28.666602;77.229617;bad
Q2JV+2CX, Bawana Rd, Sector 3, Puth Khurd, Delhi, 110039, India;28.779518;77.044015;bad
4/27 SUBHASH NAGAR, NEW DELHI, Ankur Enclave, Paschim Vihar, Delhi, 110027, India;28.664947;77.096663;good
Ground Floor, BP-08, Patel Rd, Block A, West Patel Nagar, Patel Nagar, Delhi, 110008, India;28.650143;77.160564;bad
M66H+4CM, Shyama Prasad Mukherjee Marg, Old Delhi, Delhi, 110006, India;28.660081;77.228641;bad
GWVW+3C6 asalatpur khadar achal, Asalatpur Khadar, Delhi, 110043, India;28.542919;76.946211;good
972, Chotta Chippiwara, Chawri Bazaar, Bazar Sirkiwalan, Hauz Qazi, Chandni Chowk, Delhi, 110006, India;28.648819;77.226058;bad
New Rajdhani Enclave, New Rajdhani Enclave, Swasthya Vihar, Delhi, 110092, India;28.642236;77.296086;bad
Q6MF+P7 Delhi, India;28.78436;77.223201;good
C-110, Aggra Nagar, Gali No 1, Nangloi, Gulshan Park, Mubarkpur, Delhi, 110041, India;28.686508;77.057299;bad
M69W+WH Delhi, India;28.669832;77.246394;bad
A4, 286, Sultanpuri, Delhi, 110086, India;28.695632;77.07804;bad
Subhash Nagar Crossing / Mukherji Park, Block C, Tagore Garden, Tagore Garden Extension, Delhi, 110027, India;28.642314;77.109218;good
A- block, Maharishi Balaram Marg, JJ Colony, Shakurpur Colony, Shakurpur, Delhi, 110034, India;28.686508;77.147072;bad
A2/2/28, Sultanpuri, Delhi, 110086, India;28.694785;77.076479;bad
P5MH+36F, Bhalswa Jahangirpuri, Jahangirpuri, Delhi, 110033, India;28.733661;77.178132;bad
Shish Ram Park, Uttam Nagar East, Rani Bagh, J3F8+W36, Block D, JJ Colony, Uttam Nagar, Delhi, 110059, India;28.624758;77.065115;good
B1 - 52 & 53, Church Road, Block B, Sewak Park, Dwarka, Delhi, 110059, India;28.616164;77.033948;bad
M45J+845, Block W, Basai Dara pur, Bali Nagar, Delhi, 110015, India;28.658318;77.130322;bad
M6CW+28 Delhi, India;28.670047;77.245802;bad
1, Gali No. 110, Block B, Sant Nagar, Burari, Delhi, 110084, India;28.744939;77.203315;good
K-1/5, Dwarka Mad, Block P, Mohan Garden, Razapur Khurd, Delhi, 110059, India;28.627761;77.03899;bad
1181, near jahangirpuri metro station, e-block, Jahangirpuri, Delhi, 110033, India;28.725477;77.163056;bad
A- 91, 3rd floor Dwarka Mor, Block D, Mansa Ram Park, Uttam Nagar, Delhi, 110059, India;28.620165;77.043693;bad
Uttam Nagar, Block A, Uttam Nagar, Delhi, 110059, India;28.623195;77.061328;good
C-110, Aggra Nagar, Gali No 1, Nangloi, Gulshan Park, Mubarkpur, Delhi, 110041, India;28.686508;77.057299;bad
J3RJ+5W6, Vikaspuri Flyover, Krishna Park Extension, Tilak Nagar, Delhi, 110018, India;28.640283;77.082197;good
95/2 First Flore Titan Pur, Block J, Tagore Garden, Rajouri Garden, Delhi, 110027, India;28.643912;77.113328;good
J8X5+CX Delhi, India;28.648511;77.30995;bad
Shop No 7, Rithala Metro Station, Sector 11, Rohini, Delhi, 110085, India;28.720498;77.107482;good
Q3PX+V6 Delhi, India;28.787228;77.09809;good
AH1, Block E, Sudershan Park, Delhi, 110026, India;28.663726;77.131376;bad
J-3112, DSIDC Industrial Area, Narela, Delhi, 110040, India;28.826628;77.100082;good
M5V2+V4V, Lala Jagat Narayan Marg, Guru Govind Singh College, Wazirpur, Delhi, 110034, India;28.694922;77.149959;good
JandK Pocket Dilshad Garden, Pocket A, Pocket J & K, Dilshad Garden, Delhi, 110095, India;28.679682;77.324844;bad
M6R5+94V, Christian Colony, Delhi, 110007, India;28.69095;77.207779;good
Welcome Colony, Seelampur, Shahdara, Delhi, 110032, India;28.671273;77.269606;bad
Arun Jaitley Stadium Delhi Gate, IG Indoor Stadium, ITO, Vikram Nagar, Delhi, 110002, India;28.635217;77.248533;bad
H33V+VP Delhi, India;28.554662;77.094315;bad
Shop No 7773, Sadar Nala Road, Nawab Rd, near kishan masale wala, Basti Harphool Singh, Sarai Khalil, Sadar Bazaar, Delhi, 110006, India;28.657562;77.210788;bad
M7CC+P93, Grand Trunk Rd, Phase 1, Block G, Shahdara, Delhi, 110031, India;28.671588;77.270401;bad
C-110, Aggra Nagar, Gali No 1, Nangloi, Gulshan Park, Mubarkpur, Delhi, 110041, India;28.686508;77.057299;bad
P7M5+XVC, Pushta Rd, Jagat Puri, Block G-1, Rajiv Nagar, Sonia Vihar, Delhi, 110094, India;28.734494;77.259435;bad
M63W+4X Delhi, India;28.652843;77.247394;bad
M6Q5+2JC, Chhatra Marg, Art Faculty, University Enclave, Delhi, 110007, India;28.687405;77.209057;bad
1359/2, Kacha Bagh, Katra Lehswan, Chandni Chowk, Delhi, 110006, India;28.657258;77.229701;bad
H2QW+6Q Delhi, India;28.588123;77.046927;bad
P2J3+Q7Q, Dr Sahib Singh Verma Marg, Kanjhawala Village, Delhi, 110081, India;28.731961;77.003404;bad
C-110, Aggra Nagar, Gali No 1, Nangloi, Gulshan Park, Mubarkpur, Delhi, 110041, India;28.686508;77.057299;bad
603, Khera Kalan, Delhi, 110082, India;28.772249;77.118509;bad
Rohini Depot 1 Sec 6, Swarn Jayanti Park, Sector 10, Rohini, Delhi, 110085, India;28.716673;77.112856;bad
Rohini West station, Rohini, Delhi, 110085, India;28.71471;77.116394;bad
46, Defence Enclave, Swasthya Vihar, Delhi, 110092, India;28.640592;77.291828;good
Susram niwas, plot no. 128,shiv vihar Vikas Nagar, uttam nagar Behind kamlesh public school and, near by Gupta Timber, Green Enclave, Hastsal, Delhi, 110059, India;28.646947;77.051014;bad
P477+HFQ, Sector 6 Rd, Sector 6, Rohini, Delhi, 110085, India;28.71402;77.113725;bad
P486+H9 Delhi, India;28.716412;77.110901;bad
Adarsh Hospital A12, sarai Pipal Thala, opposite Metro Pillar Number 100, Mool Chand Nagar, Adarsh Nagar, Delhi, 110033, India;28.718966;77.168383;bad
P477+HFQ, Sector 6 Rd, Sector 6, Rohini, Delhi, 110085, India;28.71402;77.113725;good
C-110, Aggra Nagar, Gali No 1, Nangloi, Gulshan Park, Mubarkpur, Delhi, 110041, India;28.686508;77.057299;bad
P4QP+M7J, B7 Rd, Block E, Sector 18, Rohini, Delhi, 110089, India;28.739232;77.135669;good
637, Rohtak Rd, Tyagi Park, Mundka, Delhi, 110041, India;28.682282;77.034141;bad
Moti Nagar Ind Area / Kirti Nagar, Block 7, Kirti Nagar Industrial Area, Kirti Nagar, Delhi, 110015, India;28.651398;77.145344;bad
210, Pandit Deen Dayal Upadhyaya Marg, Mata Sundari Railway Colony, Mandi House, Delhi, 110001, India;28.630402;77.235684;good
Rohini West, Bhagawan M, Bhagwan Mahavir Marg, Swarn Jayanti Park, Sector 10, Rohini, Delhi, 110085, India;28.714936;77.115361;bad
125, Pocket E 20, Pocket 20, Sector 3E, Rohini, Delhi, 110085, India;28.699593;77.104541;good
HOSTEL, INDRAPRASTHA COLLEGE, Civil Lines, Delhi, 110054, India;28.681466;77.223183;good
32, near jalebi chowk, Block B 4, Sultanpuri, Delhi, 110086, India;28.693863;77.073877;bad
Shivaji Park, Kamla Market, Ajmeri Gate, Delhi, 110002, India;28.638311;77.223726;good
6993, Nabi Karim, Paharganj, Delhi, 110055, India;28.651047;77.214439;bad
198, Qutab Rd, Ram Nagar Market, Teliwara, Sadar Bazaar, Delhi, 110006, India;28.648585;77.217864;bad
M64R+79X, Lal Qila, Chandni Chowk, Delhi, 110006, India;28.655248;77.240833;bad
C-110, Aggra Nagar, Gali No 1, Nangloi, Gulshan Park, Mubarkpur, Delhi, 110041, India;28.686508;77.057299;bad
